Time,Pressure,Temperature,Altitude,Heading,Roll,Pitch,x_qua,y_qua,z_qua,w_qua,temp_c,x_mag,y_mag,z_mag,x_gyro,y_gyro,z_gyro,x_acc,y_acc,z_acc,x_lin,y_lin,z_lin,x_grav,y_grav,z_grav,X_adx,Y_adx,Z_adx
2023-12-14 05:54:05.686325,1024.2331356965371,27.070668867090717,-91.06948647838124,0.0,0.0,0.0,0.0,0.0,0.0,0.0,29,-12.6875,4.75,-16.5625,0.002181661564992912,-0.001090830782496456,0.002181661564992912,0.68,-3.94,8.66,0.68,-3.9,-1.16,0.0,0.0,9.8,0.8629851999999999,-2.5889556,9.218251
2023-12-14 05:54:06.906022,1024.1753866567303,27.070668867090717,-90.30202730086845,,,,0.0,0.0,0.0,0.0,29,-12.25,5.1875,-16.875,-0.001090830782496456,-0.002181661564992912,0.00545415391248228,0.67,-3.93,8.65,0.67,-3.92,-1.12,0.68,-4.0200000000000005,8.91,0.8629851999999999,-2.4712758,9.1005712
2023-12-14 05:54:08.132254,1024.1641552635806,27.07537154201418,-91.45975976574188,0.0,0.0,0.0,0.0,0.0,0.0,0.0,-99,-11.875,4.75,-17.75,-0.003272492347489368,-0.004363323129985824,0.002181661564992912,0.63,-3.92,8.64,0.63,-3.92,-1.16,0.0,0.0,9.8,0.8237586,-2.5105024,9.1397978
2023-12-14 05:54:09.300819,1024.1633592380842,27.070668867090717,-91.45319544567259,0.0,0.0,0.0,0.0,0.0,0.0,0.0,29,-13.0625,4.375,-16.5625,-0.001090830782496456,0.001090830782496456,0.004363323129985824,0.67,-3.94,8.66,0.67,-3.94,-1.1300000000000001,0.0,0.0,9.8,0.8237586,-2.4712758,8.9828914
2023-12-14 05:54:10.432448,1024.0574958490304,27.09418220911175,-89.91167385708806,0.0,0.0,0.0,0.0,0.0,0.0,0.0,-99,-12.25,4.0625,-17.375,0.0,-0.001090830782496456,0.002181661564992912,0.67,-3.93,8.69,0.66,-3.91,-1.17,0.0,0.0,9.8,0.8629851999999999,-2.5105024,9.1005712
2023-12-14 05:54:11.554809,1024.152128082557,27.065966188907623,-90.87762683958205,0.0,0.0,0.0,0.0,0.0,0.0,0.0,-99,-12.6875,4.0625,-17.375,-0.002181661564992912,-0.003272492347489368,0.003272492347489368,0.67,-3.9,8.620000000000001,0.6900000000000001,-3.99,-1.03,0.0,0.0,9.8,0.784532,-2.4712758,8.8652116
2023-12-14 05:54:12.734797,1024.1513313585938,27.080074213678017,-90.30202730086845,0.0,0.0,0.0,0.0,0.0,0.0,0.0,-99,-13.375,4.375,-16.5625,0.0,-0.004363323129985824,0.004363323129985824,0.68,-3.89,8.620000000000001,0.65,-3.93,-1.12,0.0,0.0,9.8,0.6668522,-2.4712758,9.022118
2023-12-14 05:54:13.806892,1024.1272742170795,27.080074213678017,-90.7784038487006,0.0,0.0,0.0,0.0,0.0,0.0,0.0,29,-12.6875,4.75,-16.875,-0.003272492347489368,-0.004363323129985824,0.003272492347489368,0.67,-3.94,8.65,0.67,-3.9,-1.1400000000000001,0.68,-4.04,8.9,0.8237586,-2.5105024,9.1005712
2023-12-14 05:54:14.944149,1024.185821539068,27.070668867090717,-90.97026715326473,0.0,0.0,0.0,0.0,0.0,0.0,0.0,29,-13.0625,4.0625,-16.875,-0.002181661564992912,0.0,0.003272492347489368,0.67,-3.96,8.72,0.67,-3.96,-1.08,0.0,0.0,9.8,0.8629851999999999,-2.4712758,9.1397978
2023-12-14 05:54:16.079498,1024.2788587132245,27.0894795472268,-90.77181426840963,0.0,0.0,0.0,0.0,0.0,0.0,0.0,29,-13.0625,4.75,-16.875,-0.001090830782496456,-0.003272492347489368,0.00545415391248228,0.65,-3.92,8.65,0.0,0.0,0.0,0.0,0.0,9.8,0.8237586,-2.5105024,9.1005712
2023-12-14 05:54:17.170500,1024.2211084867113,27.080074213678017,-90.7784038487006,0.0,0.0,0.0,0.0,0.0,0.0,0.0,29,-11.875,4.375,-17.375,-0.00545415391248228,0.0,0.003272492347489368,0.45,-3.98,8.83,0.0,0.0,0.0,0.0,0.0,0.0,0.8629851999999999,-2.4320492,8.9828914
2023-12-14 05:54:18.227821,1024.2668312513688,27.084776882082224,-90.58653710703297,0.0,0.0,0.0,0.0,0.0,0.0,0.0,-99,-13.375,4.375,-17.75,-0.002181661564992912,-0.00545415391248228,0.004363323129985824,0.8300000000000001,-4.0,8.65,0.0,0.0,0.0,0.0,0.0,0.0,0.7060788,-2.5105024,9.0613446
2023-12-14 05:54:19.248102,1024.1617643687498,27.09418220911175,-91.15554522985775,0.0,0.0,0.0,0.0,0.0,0.0,0.0,29,-13.375,4.375,-18.5625,0.002181661564992912,-0.00545415391248228,0.006544984694978736,0.68,-3.88,8.63,0.0,0.0,0.0,0.0,0.0,0.0,0.8237586,-2.5105024,8.9436648
2023-12-14 05:54:20.278661,1024.2307461007301,27.10358752310276,-90.67258070840538,,,,0.0,0.0,0.0,0.0,29,-12.6875,4.0625,-17.375,0.001090830782496456,0.0,0.0,0.64,-3.93,8.63,0.0,0.0,0.0,,,,0.9414384,-2.5889556,8.7867584
2023-12-14 05:54:21.269164,1024.0438627153846,27.117695469642058,-90.18296625451471,0.0,0.0,0.0,0.0,0.0,0.0,0.0,-99,-13.0625,5.1875,-17.375,-0.001090830782496456,-0.004363323129985824,0.002181661564992912,0.67,-3.92,8.64,0.0,0.0,0.0,0.0,0.0,0.0,0.8237586,-2.5105024,8.8652116
2023-12-14 05:54:22.263629,1024.1721959541308,27.10358752310276,-90.75861184754254,0.0,0.0,0.0,0.0,0.0,0.0,0.0,29,-13.375,4.375,-16.5625,0.0,-0.003272492347489368,0.003272492347489368,0.64,-3.92,8.64,0.0,0.0,0.0,0.0,0.0,0.0,0.7060788,-2.6281822,8.9436648
2023-12-14 05:54:23.247790,1024.2179176861773,27.108290175208822,-90.66597755047333,0.0,0.0,0.0,0.0,0.0,0.0,0.0,-114,-13.0625,4.375,-16.875,-0.001090830782496456,-0.004363323129985824,0.002181661564992912,0.66,-3.9,8.65,0.0,0.0,0.0,0.0,0.0,0.0,0.9022117999999999,-2.6281822,9.0613446
2023-12-14 05:54:24.255351,1024.2291483395757,27.10358752310276,-90.56673342092324,0.0,0.0,0.0,0.0,0.0,0.0,0.0,-99,-12.25,4.375,-17.375,-0.001090830782496456,-0.004363323129985824,0.002181661564992912,0.66,-3.91,8.65,0.0,0.0,0.0,0.0,0.0,0.0,0.9414384,-2.5105024,8.747531799999999
2023-12-14 05:54:25.237130,1024.1721959541308,27.10358752310276,-90.56673342092324,0.0,0.0,0.0,0.0,0.0,0.0,0.0,29,-13.375,3.6875,-17.375,-0.001090830782496456,-0.002181661564992912,0.001090830782496456,0.66,-3.94,8.68,0.0,0.0,0.0,0.0,0.0,0.0,0.7453053999999999,-2.5889556,8.825985
2023-12-14 05:54:26.239727,1024.160165741615,27.108290175208822,-90.2822177171393,0.0,0.0,0.0,0.0,0.0,0.0,0.0,-99,-13.0625,4.75,-16.5625,-0.001090830782496456,-0.004363323129985824,-0.004363323129985824,0.67,-3.91,8.64,0.0,0.0,0.0,0.0,0.0,0.0,0.8237586,-2.5889556,8.825985
2023-12-14 05:54:27.235202,1024.229947689882,27.112992824055254,-90.95048683663526,0.0,0.0,0.0,0.0,0.0,0.0,0.0,29,-13.0625,4.375,-15.75,0.0,-0.004363323129985824,0.004363323129985824,0.65,-3.88,8.620000000000001,0.0,0.0,0.0,0.0,0.0,0.0,0.9022117999999999,-2.4320492,8.8652116
2023-12-14 05:54:28.260717,1024.206687029415,27.108290175208822,-91.42686063602424,0.0,0.0,0.0,0.0,0.0,0.0,0.0,-99,-11.1875,5.1875,-16.875,0.0,-0.002181661564992912,0.001090830782496456,0.65,-3.9,8.61,0.0,0.0,0.0,0.0,0.0,0.0,0.5883989999999999,-2.3928225999999997,8.5121722
2023-12-14 05:54:29.259139,1024.2058872216287,27.10358752310276,-90.6593666390178,0.0,0.0,0.0,0.0,0.0,0.0,0.0,-99,-13.75,4.75,-15.75,0.002181661564992912,-0.002181661564992912,-0.00545415391248228,0.65,-3.93,8.65,0.0,0.0,0.0,0.0,0.0,0.0,0.6668522,-2.6281822,9.022118
2023-12-14 05:54:30.246759,1024.1818249100038,27.117695469642058,-91.3276253470495,0.0,0.0,0.0,0.0,0.0,0.0,0.0,-99,-12.25,4.375,-17.375,-0.003272492347489368,-0.002181661564992912,0.002181661564992912,0.67,-3.91,8.63,0.0,0.0,0.0,0.0,0.0,0.0,0.7453053999999999,-2.549729,8.8652116
2023-12-14 05:54:31.236092,1024.1938562962375,27.112992824055254,-90.94387789111519,0.0,0.0,0.0,0.0,0.0,0.0,0.0,-99,-11.875,4.375,-17.375,0.001090830782496456,-0.001090830782496456,0.003272492347489368,0.66,-3.92,8.6,0.0,0.0,0.0,0.0,0.0,0.0,0.6276256,-2.7458620000000002,8.9436648
2023-12-14 05:54:32.219584,1024.1120402831295,27.131803386844695,-90.2623383493475,0.0,0.0,0.0,0.0,0.0,0.0,0.0,-99,-13.0625,3.6875,-16.5625,-0.002181661564992912,-0.003272492347489368,0.002181661564992912,0.66,-3.93,8.620000000000001,0.0,0.0,0.0,0.0,0.0,0.0,0.5883989999999999,-2.7850886,9.0613446
2023-12-14 05:54:33.208283,1024.206687029415,27.108290175208822,-90.8578523107669,0.0,0.0,0.0,0.0,0.0,0.0,0.0,-99,-12.6875,4.375,-16.1875,-0.003272492347489368,-0.004363323129985824,-0.002181661564992912,0.67,-3.89,8.6,0.0,0.0,0.0,0.0,0.0,0.0,0.5883989999999999,-2.5889556,8.7083052
2023-12-14 05:54:34.194009,1024.1826261147266,27.117695469642058,-91.14235838832934,0.0,0.0,0.0,0.0,0.0,0.0,0.0,-99,-13.0625,4.375,-17.75,0.0,0.001090830782496456,0.0,0.66,-3.92,8.63,0.0,0.0,0.0,0.0,0.0,0.0,0.6276256,-2.4712758,8.9044382
2023-12-14 05:54:35.187959,1024.194656802492,27.117695469642058,-90.94387789111519,0.0,0.0,0.0,0.0,0.0,0.0,0.0,-99,-12.6875,4.375,-16.5625,-0.001090830782496456,0.00545415391248228,-0.002181661564992912,0.68,-3.95,8.61,0.0,0.0,0.0,0.0,0.0,0.0,0.784532,-2.7458620000000002,9.1005712
2023-12-14 05:54:36.167395,1024.2291483395757,27.122398111969233,-90.94387789111519,0.0,0.0,0.0,0.0,0.0,0.0,0.0,-99,-11.875,3.6875,-16.5625,-0.002181661564992912,-0.002181661564992912,0.001090830782496456,0.68,-3.95,8.6,0.0,0.0,0.0,0.0,0.0,0.0,0.7453053999999999,-2.4320492,8.825985
2023-12-14 05:54:37.174971,1024.2532083613946,27.112992824055254,-90.27559901503061,0.0,0.0,0.0,0.0,0.0,0.0,0.0,-99,-13.375,4.75,-17.75,0.002181661564992912,0.001090830782496456,-0.002181661564992912,0.67,-3.9,8.63,0.0,0.0,0.0,0.0,0.0,0.0,0.7453053999999999,-2.5105024,8.590625399999999
2023-12-14 05:54:38.170364,1024.1834263799926,27.112992824055254,-90.560116685055,0.0,0.0,0.0,0.0,0.0,0.0,0.0,-99,-12.6875,4.0625,-17.375,-0.001090830782496456,-0.003272492347489368,0.001090830782496456,0.66,-3.95,8.68,0.0,0.0,0.0,0.0,0.0,0.0,0.9414384,-2.7458620000000002,9.1790244
2023-12-14 05:54:39.157734,1024.2179176861773,27.112992824055254,-90.56673342092324,0.0,0.0,0.0,0.0,0.0,0.0,0.0,-99,-12.6875,5.1875,-17.0,-0.003272492347489368,-0.002181661564992912,0.0,0.67,-3.92,8.66,0.0,0.0,0.0,0.0,0.0,0.0,0.5883989999999999,-2.7850886,8.9828914
2023-12-14 05:54:40.135636,1024.2644394866822,27.112992824055254,-90.85124529442643,0.0,0.0,0.0,0.0,0.0,0.0,0.0,-99,-13.0625,4.75,-16.5625,0.001090830782496456,-0.00545415391248228,0.002181661564992912,0.67,-3.92,8.64,0.0,0.0,0.0,0.0,0.0,0.0,0.6668522,-2.7066354,9.1397978
2023-12-14 05:54:41.133752,1024.2884981403777,27.112992824055254,-91.13575333777676,0.0,0.0,0.0,0.0,0.0,0.0,0.0,-99,-12.6875,4.375,-18.1875,0.0,0.0,0.001090830782496456,0.67,-3.88,8.59,0.0,0.0,0.0,0.0,0.0,0.0,0.784532,-2.4712758,8.669078599999999
2023-12-14 05:55:02.225563,1024.2973329855565,27.136506019392982,-91.30777536114067,0.0,0.0,0.0,0.0,0.0,0.0,0.0,29,-12.25,4.75,-17.375,0.0,-0.004363323129985824,0.001090830782496456,,,,0.0,0.0,0.0,0.0,0.0,0.0,0.8237586,-2.549729,8.669078599999999
2023-12-14 05:55:03.220208,1024.144923746673,27.160019133239985,-90.1431027848011,0.0,0.0,0.0,0.0,0.0,0.0,0.0,-99,-13.375,3.6875,-17.375,-0.002181661564992912,0.001090830782496456,-0.001090830782496456,0.65,-3.92,8.6,0.0,0.0,0.0,0.0,0.0,0.0,0.9022117999999999,-2.6281822,8.9828914
2023-12-14 05:55:04.205187,1024.2732696657756,27.14120864868164,-90.24904666819313,0.0,0.0,0.0,0.0,0.0,0.0,0.0,-99,-12.25,4.0625,-16.1875,-0.001090830782496456,-0.004363323129985824,0.003272492347489368,0.67,-3.93,8.66,0.0,0.0,0.0,0.0,0.0,0.0,0.784532,-2.549729,8.9436648
2023-12-14 05:55:05.225966,1024.2379745789415,27.15061389748007,-90.82473969460703,0.0,0.0,0.0,0.0,0.0,0.0,0.0,-99,-13.375,4.375,-17.0,-0.002181661564992912,0.0,-0.001090830782496456,0.63,-3.85,8.58,0.0,0.0,0.0,0.0,0.0,0.0,0.7453053999999999,-2.3535959999999996,8.9828914
2023-12-14 05:55:06.249617,1024.2034821615132,27.14591127471067,-90.91736457514796,0.0,0.0,0.0,0.0,0.0,0.0,0.0,-99,-13.75,4.375,-17.375,-0.003272492347489368,-0.002181661564992912,-0.001090830782496456,0.71,-3.95,8.66,0.0,0.0,0.0,0.0,0.0,0.0,0.8237586,-2.549729,9.0613446
2023-12-14 05:55:07.282614,1024.2034821615132,27.15061389748007,-91.4930273448782,0.0,0.0,0.0,0.0,0.0,0.0,0.0,-99,-12.25,4.75,-17.0,-0.003272492347489368,0.001090830782496456,0.003272492347489368,0.7000000000000001,-3.89,8.65,0.0,0.0,0.0,0.0,0.0,0.0,0.5491724,-2.6674088,9.0613446
2023-12-14 05:55:08.272899,1024.2836976271362,27.160019133239985,-91.20187986219196,0.0,0.0,0.0,0.0,0.0,0.0,0.0,-99,-12.25,4.75,-17.0,0.004363323129985824,-0.001090830782496456,0.001090830782496456,0.64,-3.92,8.65,0.0,0.0,0.0,0.0,0.0,0.0,0.8629851999999999,-2.7066354,8.825985
2023-12-14 05:55:09.252890,1024.260434422939,27.160019133239985,-91.10261178598874,0.0,0.0,0.0,0.0,0.0,0.0,0.0,-99,-12.25,4.75,-17.375,0.0,-0.003272492347489368,0.004363323129985824,0.72,-3.89,8.620000000000001,0.0,0.0,0.0,0.0,0.0,0.0,0.7453053999999999,-2.4712758,9.022118
2023-12-14 05:55:10.261133,1024.2716643398824,27.174126962432638,-91.18858061712739,0.0,0.0,0.0,0.0,0.0,0.0,0.0,29,-13.375,3.6875,-16.1875,0.0,-0.002181661564992912,0.001090830782496456,0.64,-3.9,8.64,0.0,0.0,0.0,0.0,0.0,0.0,0.8237586,-2.4712758,9.022118
2023-12-14 05:55:11.292078,1024.2700552561023,27.18353216559626,-90.99668156917588,0.0,0.0,0.0,0.0,0.0,0.0,0.0,-99,-12.6875,4.75,-16.5625,-0.001090830782496456,-0.003272492347489368,0.00545415391248228,0.68,-3.92,8.64,0.0,0.0,0.0,0.0,0.0,0.0,0.784532,-2.5105024,9.1005712
2023-12-14 05:55:12.305638,1024.259630591787,27.174126962432638,-91.09596021564313,0.0,0.0,0.0,0.0,0.0,0.0,0.0,-99,-13.0625,5.875,-18.1875,-0.001090830782496456,-0.001090830782496456,0.0,0.6900000000000001,-3.91,8.59,0.0,0.0,0.0,0.0,0.0,0.0,0.7453053999999999,-2.5889556,8.9828914
2023-12-14 05:55:13.294423,1024.1649619151199,27.19293735572137,-90.69881715382017,0.0,0.0,0.0,0.0,0.0,0.0,0.0,29,-13.0625,4.75,-17.75,0.002181661564992912,-0.001090830782496456,0.001090830782496456,0.67,-3.93,8.63,0.0,0.0,0.0,0.0,0.0,0.0,0.8237586,-2.6674088,9.0613446
2023-12-14 05:55:14.285996,1024.1890335300334,27.18823476228863,-91.0893008918921,0.0,0.0,0.0,0.0,0.0,0.0,0.0,-99,-12.6875,5.1875,-17.0,-0.002181661564992912,-0.006544984694978736,-0.001090830782496456,0.68,-3.94,8.61,0.0,0.0,0.0,0.0,0.0,0.0,0.7060788,-2.3143694,8.8652116
2023-12-14 05:55:15.285412,1024.1657694550797,27.18353216559626,-90.89739817679828,0.0,0.0,0.0,0.0,0.0,0.0,0.0,-99,-13.375,4.0625,-16.5625,-0.002181661564992912,0.0,-0.003272492347489368,0.67,-3.91,8.620000000000001,0.0,0.0,0.0,0.0,0.0,0.0,0.7453053999999999,-2.5889556,8.9044382
2023-12-14 05:55:16.265828,1024.2339484384772,27.19763994589448,-91.08263381471598,0.0,0.0,0.0,0.0,0.0,0.0,0.0,-99,-12.6875,5.1875,-17.0,-0.002181661564992912,-0.003272492347489368,0.004363323129985824,0.67,-3.92,8.620000000000001,0.0,0.0,0.0,0.0,0.0,0.0,0.7060788,-2.3928225999999997,8.590625399999999
2023-12-14 05:55:17.294543,1024.1874184255757,27.20234253280796,-91.27453698728023,0.0,0.0,0.0,0.0,0.0,0.0,0.0,-99,-12.6875,3.6875,-17.0,-0.004363323129985824,-0.003272492347489368,0.003272492347489368,0.66,-3.93,8.620000000000001,0.0,0.0,0.0,0.0,0.0,0.0,0.6668522,-2.6674088,8.747531799999999
2023-12-14 05:55:18.324010,1024.267634584369,27.20234253280796,-91.07595898408523,0.0,0.0,0.0,0.0,0.0,0.0,0.0,29,-13.0625,4.375,-17.0,0.0,0.001090830782496456,0.00545415391248228,0.67,-3.89,8.58,0.6900000000000001,-3.9,-1.2,0.0,0.0,9.8,0.8629851999999999,-2.4712758,9.1397978
2023-12-14 05:55:19.388851,1024.1513061211515,27.21645027399063,-90.96997445437644,0.0,0.0,0.0,0.0,0.0,0.0,0.0,29,-12.6875,5.1875,-17.0,-0.002181661564992912,-0.001090830782496456,0.004363323129985824,0.68,-3.92,8.65,0.0,0.0,0.0,0.0,0.0,9.8,0.7453053999999999,-2.549729,9.022118
2023-12-14 05:55:20.439711,1024.2555973439241,27.207045116461813,-91.2611873647029,0.0,0.0,0.0,0.0,0.0,0.0,0.0,29,-12.6875,4.75,-16.5625,-0.001090830782496456,-0.001090830782496456,0.003272492347489368,0.67,-3.95,8.73,0.0,0.0,0.0,0.0,0.0,0.0,0.8237586,-2.4320492,8.9828914
2023-12-14 05:55:21.491872,1024.2202934814934,27.225855418480933,-91.53233133400813,0.0,0.0,0.0,0.0,0.0,0.0,0.0,-99,-13.375,4.75,-16.5625,-0.003272492347489368,-0.002181661564992912,0.001090830782496456,0.63,-3.92,8.63,0.0,0.0,0.0,0.0,0.0,0.0,0.8629851999999999,-2.5105024,8.9828914
2023-12-14 05:55:22.534450,1024.2435596426412,27.23055798583664,-91.05588797122925,0.0,0.0,0.0,0.0,0.0,0.0,0.0,-99,-13.0625,4.0625,-17.75,-0.001090830782496456,-0.00545415391248228,0.00545415391248228,0.63,-3.93,8.64,0.0,0.0,0.0,0.0,0.0,0.0,0.784532,-2.7850886,8.9044382
2023-12-14 05:55:23.561458,1024.160096946497,27.25407077372074,-90.0827841813681,0.0,0.0,0.0,0.0,0.0,0.0,0.0,29,-12.6875,4.0625,-17.375,0.0,-0.003272492347489368,-0.002181661564992912,0.67,-3.92,8.66,0.0,0.0,0.0,0.0,0.0,0.0,0.6276256,-2.7850886,8.9828914
2023-12-14 05:55:24.588084,1024.2997007752288,27.239963110769168,-91.24110478044877,0.0,0.0,0.0,0.0,0.0,0.0,0.0,29,-12.25,5.5625,-17.375,0.001090830782496456,-0.001090830782496456,0.001090830782496456,0.6900000000000001,-3.94,8.68,0.0,0.0,0.0,0.0,0.0,0.0,0.6668522,-2.6674088,9.1005712
2023-12-14 05:55:25.620996,1024.194591268796,27.24936822266318,-91.42631819015685,0.0,0.0,0.0,0.0,0.0,0.0,0.0,-99,-11.875,4.75,-17.75,-0.004363323129985824,-0.003272492347489368,0.003272492347489368,0.68,-3.91,8.64,0.0,0.0,0.0,0.0,0.0,0.0,0.8237586,-2.5105024,9.1005712
2023-12-14 05:55:26.654778,1024.2411263247805,27.24936822266318,-90.94314328219785,0.0,0.0,0.0,0.0,0.0,0.0,0.0,29,-12.6875,4.0625,-16.5625,-0.002181661564992912,0.0,0.003272492347489368,0.67,-3.93,8.63,0.0,0.0,0.0,0.0,0.0,0.0,0.7060788,-2.7458620000000002,9.218251
2023-12-14 05:55:27.732812,1024.2515406090833,27.26347586605698,-90.94314328219785,0.0,0.0,0.0,0.0,0.0,0.0,0.0,29,-13.0625,4.375,-17.75,-0.002181661564992912,-0.003272492347489368,0.002181661564992912,0.67,-3.93,8.66,0.0,0.0,0.0,0.0,0.0,0.0,0.9022117999999999,-2.3928225999999997,8.9436648
2023-12-14 05:55:28.791675,1024.2403133398618,27.26347586605698,-91.02901807076674,0.0,0.0,0.0,0.0,0.0,0.0,0.0,-99,-13.375,4.0625,-15.75,-0.001090830782496456,-0.00545415391248228,0.00545415391248228,0.66,-3.91,8.620000000000001,0.0,0.0,0.0,0.0,0.0,0.0,0.8629851999999999,-2.3928225999999997,8.5513988
2023-12-14 05:55:29.809966,1024.2860363454288,27.277583480114117,-90.9364161049805,0.0,0.0,0.0,0.0,0.0,0.0,0.0,-99,-12.25,4.75,-17.75,0.001090830782496456,-0.002181661564992912,-0.003272492347489368,0.66,-3.91,8.620000000000001,0.0,0.0,0.0,0.0,0.0,0.0,0.8237586,-2.4712758,9.1005712
2023-12-14 05:55:30.836287,1024.273995137371,27.277583480114117,-91.21421945292455,0.0,0.0,0.0,0.0,0.0,0.0,0.0,-99,-13.0625,5.1875,-16.5625,0.0,-0.003272492347489368,0.003272492347489368,0.66,-3.93,8.64,0.0,0.0,0.0,0.0,0.0,0.0,0.9022117999999999,-2.7458620000000002,8.9828914
2023-12-14 05:55:31.849581,1024.2852223964344,27.286988539854065,-91.30681886932565,0.0,0.0,0.0,0.0,0.0,0.0,0.0,29,-12.25,4.75,-17.375,-0.001090830782496456,-0.003272492347489368,0.0,0.65,-3.93,8.67,0.0,0.0,0.0,0.0,0.0,0.0,0.8237586,-2.549729,9.1790244
2023-12-14 05:55:32.886438,1024.2025561102823,27.286988539854065,-91.207478737193,0.0,0.0,0.0,0.0,0.0,0.0,0.0,-99,-12.25,5.1875,-17.375,-0.002181661564992912,-0.002181661564992912,0.002181661564992912,0.67,-3.91,8.63,0.0,0.0,0.0,0.0,0.0,0.0,0.784532,-2.5105024,8.9436648
2023-12-14 05:55:33.927931,1024.1551981567295,27.30579862021841,-90.23418997395356,0.0,0.0,0.0,0.0,0.0,0.0,0.0,-99,-12.25,4.75,-17.0,0.001090830782496456,0.0,0.00545415391248228,0.67,-3.93,8.63,0.0,0.0,0.0,0.0,0.0,0.0,0.8629851999999999,-2.4712758,9.1005712
2023-12-14 05:55:34.964202,1024.2827749124951,27.301096105016768,-90.90942985859381,0.0,0.0,0.0,0.0,0.0,0.0,0.0,-99,-13.375,5.1875,-17.375,-0.004363323129985824,0.0,0.002181661564992912,0.67,-3.92,8.63,0.0,0.0,0.0,0.0,0.0,0.0,0.8629851999999999,-2.8635417999999997,9.1790244
2023-12-14 05:55:35.955385,1024.260321837122,27.301096105016768,-90.91618805086922,0.0,0.0,0.0,0.0,0.0,0.0,0.0,-99,-13.0625,4.75,-16.5625,0.0,-0.003272492347489368,0.002181661564992912,0.66,-3.92,8.66,0.0,0.0,0.0,0.0,0.0,0.0,0.9022117999999999,-2.6281822,8.825985
2023-12-14 05:55:36.976107,1024.3301313988027,27.296393586555496,-91.38592053817509,0.0,0.0,0.0,0.0,0.0,0.0,0.0,-99,-12.6875,5.1875,-16.5625,0.001090830782496456,-0.003272492347489368,0.003272492347489368,0.67,-3.91,8.6,0.0,0.0,0.0,0.0,0.0,0.0,0.8237586,-2.5889556,9.1397978
2023-12-14 05:55:38.015628,1024.2835916799693,27.301096105016768,-91.392672863802,0.0,0.0,0.0,0.0,0.0,0.0,0.0,29,-12.6875,4.375,-17.0,-0.002181661564992912,-0.00545415391248228,0.003272492347489368,0.67,-3.92,8.65,0.0,0.0,0.0,0.0,0.0,0.0,0.7453053999999999,-2.5889556,8.9436648
2023-12-14 05:55:39.041246,1024.3060452238312,27.301096105016768,-91.10137956329814,0.0,0.0,0.0,0.0,0.0,0.0,0.0,29,-14.875,4.75,-17.375,-0.003272492347489368,-0.003272492347489368,0.001090830782496456,0.65,-3.92,8.64,0.0,0.0,0.0,0.0,0.0,0.0,0.8237586,-2.5105024,9.0613446
2023-12-14 05:55:40.067377,1024.2474603870737,27.301096105016768,-91.67720803725828,0.0,0.0,0.0,0.0,0.0,0.0,0.0,29,-13.0625,4.0625,-17.0,-0.003272492347489368,-0.00545415391248228,0.001090830782496456,0.66,-3.92,8.61,0.0,0.0,0.0,0.0,0.0,0.0,0.9022117999999999,-2.5105024,9.1005712
2023-12-14 05:55:41.105435,1024.2362343229613,27.31520364084281,-91.28656767682561,0.0,0.0,0.0,0.0,0.0,0.0,0.0,-99,-13.375,4.375,-16.1875,0.0,-0.002181661564992912,0.001090830782496456,0.66,-3.92,8.6,0.0,0.0,0.0,0.0,0.0,0.0,0.7060788,-2.6281822,9.022118
2023-12-14 05:55:42.124372,1024.2931834970948,27.324608648428693,-91.56434347434264,0.0,0.0,0.0,0.0,0.0,0.0,0.0,-99,-13.375,4.375,-17.0,0.0,-0.00545415391248228,0.002181661564992912,0.68,-3.9,8.53,0.0,0.0,0.0,0.0,0.0,0.0,0.8629851999999999,-2.549729,9.0613446
2023-12-14 05:55:43.137204,1024.2578673438863,27.324608648428693,-91.08784771253906,0.0,0.0,0.0,0.0,0.0,0.0,0.0,-99,-12.6875,4.0625,-16.1875,0.001090830782496456,-0.002181661564992912,0.002181661564992912,0.67,-3.91,8.64,0.0,0.0,0.0,0.0,0.0,0.0,0.8237586,-2.5105024,9.1397978
2023-12-14 05:55:44.175703,1024.1760074729966,27.33401364297606,-90.6971439200247,0.0,0.0,0.0,0.0,0.0,0.0,0.0,-99,-13.375,4.0625,-17.375,-0.002181661564992912,-0.002181661564992912,0.00545415391248228,0.67,-3.92,8.620000000000001,0.0,0.0,0.0,0.0,0.0,0.0,0.8237586,-2.5105024,9.1397978
2023-12-14 05:55:45.205550,1024.2233705543126,27.31520364084281,-91.56434347434264,0.0,0.0,0.0,0.0,0.0,0.0,0.0,-99,-13.0625,4.0625,-17.0,0.001090830782496456,-0.002181661564992912,0.003272492347489368,0.68,-3.96,8.620000000000001,0.0,0.0,0.0,0.0,0.0,0.0,0.9414384,-2.3928225999999997,8.9828914
2023-12-14 05:55:46.226346,1024.2923646095953,27.33401364297606,-91.84211162478643,0.0,0.0,0.0,0.0,0.0,0.0,0.0,-99,-12.6875,4.75,-17.0,-0.001090830782496456,-0.003272492347489368,0.002181661564992912,0.66,-3.94,8.67,0.0,0.0,0.0,0.0,0.0,0.0,0.980665,-2.5105024,8.9828914
2023-12-14 05:55:47.254109,1024.1880537646523,27.32931114733219,-91.74274754635483,0.0,0.0,0.0,0.0,0.0,0.0,0.0,-99,-12.6875,4.75,-17.375,-0.003272492347489368,-0.002181661564992912,0.00545415391248228,0.67,-3.94,8.64,0.0,0.0,0.0,0.0,0.0,0.0,0.8237586,-2.5105024,9.1005712
2023-12-14 05:55:48.283203,1024.2803189730873,27.3387161353603,-91.84211162478643,0.0,0.0,0.0,0.0,0.0,0.0,0.0,-99,-13.375,4.375,-17.0,-0.001090830782496456,-0.004363323129985824,0.002181661564992912,0.66,-3.91,8.61,0.0,0.0,0.0,0.0,0.0,0.0,0.9414384,-2.7458620000000002,9.218251
2023-12-14 05:55:49.310061,1024.338088629429,27.33401364297606,-91.17365885405971,0.0,0.0,0.0,0.0,0.0,0.0,0.0,-99,-12.25,5.1875,-17.0,-0.001090830782496456,-0.003272492347489368,0.002181661564992912,0.65,-3.95,8.66,0.0,0.0,0.0,0.0,0.0,0.0,0.8237586,-2.5105024,8.9436648
2023-12-14 05:55:50.330010,1024.2562263175766,27.33401364297606,-91.45820511658236,0.0,0.0,0.0,0.0,0.0,0.0,0.0,-99,-11.5625,3.6875,-17.75,0.001090830782496456,-0.002181661564992912,0.003272492347489368,0.8300000000000001,-3.72,8.39,0.0,0.0,0.0,0.0,0.0,0.0,0.8629851999999999,-2.6674088,9.1397978
2023-12-14 05:55:51.344193,1024.2562263175766,27.352823592955247,-91.54400514781547,0.0,0.0,0.0,0.0,0.0,0.0,0.0,-99,-13.0625,4.375,-17.375,-0.003272492347489368,0.0,0.002181661564992912,0.67,-3.94,8.6,0.0,0.0,0.0,0.0,0.0,0.0,0.6668522,-2.7066354,9.1397978
2023-12-14 05:55:52.364261,1024.3244007011217,27.35752607230097,-91.4514198488133,0.0,0.0,0.0,0.0,0.0,0.0,0.0,-99,-13.0625,5.1875,-17.375,-0.003272492347489368,-0.001090830782496456,-0.001090830782496456,0.63,-3.94,8.66,0.0,0.0,0.0,0.0,0.0,0.0,0.6668522,-2.8635417999999997,8.7867584
2023-12-14 05:55:53.380080,1024.2321318187426,27.35752607230097,-91.7291731970151,0.0,0.0,0.0,0.0,0.0,0.0,0.0,-99,-13.75,4.75,-17.375,-0.001090830782496456,-0.004363323129985824,0.002181661564992912,0.67,-3.93,8.64,0.0,0.0,0.0,0.0,0.0,0.0,0.8237586,-2.4712758,9.1005712
2023-12-14 05:55:54.447807,1024.1727133793063,27.376335957087576,-90.85508517995854,0.0,0.0,0.0,0.0,0.0,0.0,0.0,29,-12.6875,4.375,-16.1875,-0.003272492347489368,-0.001090830782496456,0.003272492347489368,0.65,-3.91,8.63,0.0,0.0,0.0,0.0,0.0,0.0,0.9022117999999999,-2.549729,9.0613446
2023-12-14 05:55:55.494907,1024.1959866142681,27.36693102121353,-91.05388239437619,0.0,0.0,0.0,0.0,0.0,0.0,0.0,-99,-12.25,5.5625,-17.375,0.0,0.0,0.003272492347489368,0.64,-3.95,8.68,0.0,0.0,0.0,0.0,0.0,0.0,0.8237586,-2.7066354,8.9828914
2023-12-14 05:55:56.483908,1024.2770312341884,27.37163349078037,-91.14646338051,0.0,0.0,0.0,0.0,0.0,0.0,0.0,-99,-13.375,5.5625,-17.0,0.0,-0.002181661564992912,-0.003272492347489368,0.64,-3.93,8.66,0.0,0.0,0.0,0.0,0.0,0.0,0.6276256,-2.549729,8.669078599999999
2023-12-14 05:55:57.467808,1024.3115298271691,27.381038420135155,-91.3384371586928,0.0,0.0,0.0,0.0,0.0,0.0,0.0,-99,-11.875,4.0625,-17.0,0.0,-0.001090830782496456,0.0,0.66,-3.93,8.620000000000001,0.0,0.0,0.0,0.0,0.0,0.0,0.784532,-2.6281822,8.7083052
2023-12-14 05:55:58.453144,1024.3227549033656,27.376335957087576,-91.62298808971815,0.0,0.0,0.0,0.0,0.0,0.0,0.0,29,-12.25,5.1875,-16.5625,0.001090830782496456,-0.003272492347489368,0.006544984694978736,0.65,-3.94,8.65,0.0,0.0,0.0,0.0,0.0,0.0,0.4707192,-2.5889556,8.825985
2023-12-14 05:55:59.444279,1024.346028896269,27.376335957087576,-91.04706606916574,0.0,0.0,0.0,0.0,0.0,0.0,0.0,-99,-13.0625,4.75,-17.0,-0.001090830782496456,-0.003272492347489368,0.001090830782496456,0.67,-3.94,8.65,0.0,0.0,0.0,0.0,0.0,0.0,0.8629851999999999,-2.6674088,9.0613446
2023-12-14 05:56:00.435292,1024.2994809215093,27.381038420135155,-91.33162280414018,0.0,0.0,0.0,0.0,0.0,0.0,0.0,-99,-13.75,4.75,-16.5625,-0.002181661564992912,-0.004363323129985824,0.001090830782496456,0.65,-3.94,8.67,0.0,0.0,0.0,0.0,0.0,0.0,0.8237586,-2.6674088,8.9044382
2023-12-14 05:56:01.445492,1024.2762069506994,27.381038420135155,-92.0926925847694,0.0,0.0,0.0,0.0,0.0,0.0,0.0,-99,-12.6875,5.1875,-17.75,-0.003272492347489368,0.0,-0.003272492347489368,0.65,-3.92,8.63,0.0,0.0,0.0,0.0,0.0,0.0,0.9022117999999999,-2.7850886,8.9828914
2023-12-14 05:56:02.435399,1024.2882560795497,27.385740879923105,-91.42420124164639,0.0,0.0,0.0,0.0,0.0,0.0,0.0,-99,-14.1875,5.5625,-19.0,0.0,-0.001090830782496456,-0.001090830782496456,0.67,-3.93,8.620000000000001,0.0,0.0,0.0,0.0,0.0,0.0,0.6668522,-2.5889556,8.8652116
2023-12-14 05:56:03.433346,1024.2874315550198,27.385740879923105,-91.9007247739496,0.0,0.0,0.0,0.0,0.0,0.0,0.0,-114,-12.6875,4.375,-17.375,0.002181661564992912,0.0,-0.002181661564992912,0.65,-3.92,8.68,0.0,0.0,0.0,0.0,0.0,0.0,0.8237586,-2.7066354,8.747531799999999
2023-12-14 05:56:04.433814,1024.2641573610201,27.395145789720118,-91.51677882963631,0.0,0.0,0.0,0.0,0.0,0.0,0.0,-99,-12.6875,4.0625,-16.5625,-0.001090830782496456,-0.003272492347489368,-0.001090830782496456,0.65,-3.94,8.65,0.0,0.0,0.0,0.0,0.0,0.0,0.7453053999999999,-2.5105024,8.8652116
2023-12-14 05:56:05.415286,1024.1814561330152,27.40925312996842,-90.92715103126554,0.0,0.0,0.0,0.0,0.0,0.0,0.0,-99,-12.6875,4.75,-17.375,0.0,-0.001090830782496456,0.003272492347489368,0.66,-3.9,8.64,0.0,0.0,0.0,0.0,0.0,0.0,0.6668522,-2.5889556,9.022118
2023-12-14 05:56:06.416660,1024.2625045785803,27.39984823972918,-91.31797083378565,0.0,0.0,0.0,0.0,0.0,0.0,0.0,-99,-13.0625,4.375,-17.375,-0.001090830782496456,-0.003272492347489368,0.003272492347489368,0.65,-3.94,8.68,0.0,0.0,0.0,0.0,0.0,0.0,0.7060788,-2.6674088,9.218251
2023-12-14 05:56:07.410989,1024.3082279216778,27.404550686478615,-91.31797083378565,0.0,0.0,0.0,0.0,0.0,0.0,0.0,-99,-12.25,4.0625,-16.5625,-0.001090830782496456,-0.004363323129985824,0.001090830782496456,0.67,-3.9,8.61,0.0,0.0,0.0,0.0,0.0,0.0,0.8629851999999999,-2.6674088,8.9436648
2023-12-14 05:56:08.405897,1024.2271778101497,27.40925312996842,-91.02657056986507,0.0,0.0,0.0,0.0,0.0,0.0,0.0,-99,-13.0625,4.0625,-17.0,-0.002181661564992912,-0.002181661564992912,0.001090830782496456,0.67,-3.93,8.65,0.0,0.0,0.0,0.0,0.0,0.0,0.980665,-2.4320492,8.747531799999999
2023-12-14 05:56:09.404422,1024.2978304508536,27.40925312996842,-91.31113321792472,0.0,0.0,0.0,0.0,0.0,0.0,0.0,-99,-13.375,4.375,-17.375,0.0,-0.00545415391248228,0.0,0.66,-3.93,8.66,0.0,0.0,0.0,0.0,0.0,0.0,0.784532,-2.6281822,9.022118
2023-12-14 05:56:10.392723,1024.2970038062565,27.413955570198596,-91.41054541605138,0.0,0.0,0.0,0.0,0.0,0.0,0.0,-99,-11.875,4.375,-17.0,0.0,0.002181661564992912,0.001090830782496456,0.66,-3.95,8.66,0.0,0.0,0.0,0.0,0.0,0.0,0.8237586,-2.549729,8.8652116
2023-12-14 05:56:11.390154,1024.2737284631744,27.413955570198596,-91.02657056986507,0.0,0.0,0.0,0.0,0.0,0.0,0.0,-99,-13.0625,4.375,-17.375,-0.001090830782496456,-0.002181661564992912,0.0,0.68,-3.96,8.66,0.0,0.0,0.0,0.0,0.0,0.0,0.7060788,-2.549729,8.8652116
2023-12-14 05:56:12.373341,1024.2496246321855,27.418658007169142,-91.97965402705786,0.0,0.0,0.0,0.0,0.0,0.0,0.0,-99,-12.6875,4.375,-16.25,0.0,0.001090830782496456,-0.004363323129985824,0.66,-3.91,8.63,0.0,0.0,0.0,0.0,0.0,0.0,0.784532,-2.6281822,8.7867584
2023-12-14 05:56:13.367311,1024.2496246321855,27.42336044088006,-90.83457798429382,0.0,0.0,0.0,0.0,0.0,0.0,0.0,-99,-12.6875,4.375,-17.0,0.0,-0.002181661564992912,0.002181661564992912,0.65,-3.94,8.68,0.0,0.0,0.0,0.0,0.0,0.0,0.7453053999999999,-2.5105024,8.9044382
2023-12-14 05:56:14.349587,1024.2384012228708,27.42336044088006,-91.396858575477,0.0,0.0,0.0,0.0,0.0,0.0,0.0,-99,-13.0625,4.375,-16.5625,-0.001090830782496456,-0.003272492347489368,0.003272492347489368,0.65,-3.94,8.68,0.0,0.0,0.0,0.0,0.0,0.0,0.7453053999999999,-2.3928225999999997,8.747531799999999
2023-12-14 05:56:15.338655,1024.203902500206,27.418658007169142,-91.48942845328109,0.0,0.0,0.0,0.0,0.0,0.0,0.0,29,-12.6875,4.75,-17.0,0.001090830782496456,-0.003272492347489368,0.004363323129985824,0.65,-3.92,8.620000000000001,0.0,0.0,0.0,0.0,0.0,0.0,0.8237586,-2.5889556,8.747531799999999
2023-12-14 05:56:20.635028,1024.2978304508536,27.413955570198596,-91.70193145707708,0.0,0.0,0.0,0.0,0.0,0.0,0.0,-98,-12.25,5.1875,-17.375,-0.004363323129985824,0.0,0.0,0.65,-3.94,8.65,0.0,0.0,0.0,0.0,0.0,0.0,0.8629851999999999,-2.7458620000000002,9.022118
2023-12-14 05:56:21.625794,1024.2970038062565,27.404550686478615,-91.41054541605138,0.0,0.0,0.0,0.0,0.0,0.0,0.0,30,-12.6875,4.375,-17.375,0.0,-0.001090830782496456,0.002181661564992912,0.67,-3.94,8.63,0.0,0.0,0.0,0.0,0.0,0.0,0.9022117999999999,-2.8243152,8.825985
2023-12-14 05:56:22.610506,1024.3082279216778,27.404550686478615,-91.01972322878983,0.0,0.0,0.0,0.0,0.0,0.0,0.0,-98,-12.25,4.75,-17.75,-0.002181661564992912,0.0,0.002181661564992912,0.65,-3.94,8.63,0.0,0.0,0.0,0.0,0.0,0.0,0.5491724,-2.5889556,8.7083052
2023-12-14 05:56:23.603665,1024.33150351004,27.413955570198596,-91.59569203216182,0.0,0.0,0.0,0.0,0.0,0.0,0.0,30,-12.25,4.75,-17.0,-0.002181661564992912,-0.002181661564992912,0.007635815477475192,0.67,-3.91,8.66,0.0,0.0,0.0,0.0,0.0,9.8,0.8629851999999999,-2.3928225999999997,8.9828914
2023-12-14 05:56:24.632644,1024.3202791603844,27.413955570198596,-90.93399644481401,0.0,0.0,0.0,0.0,0.0,0.0,0.0,30,-12.6875,4.375,-17.0,-0.001090830782496456,0.001090830782496456,0.003272492347489368,0.67,-3.95,8.68,0.0,0.0,0.0,0.0,0.0,0.0,0.8237586,-2.5105024,8.9436648
2023-12-14 05:56:25.676908,1024.2849523443626,27.40925312996842,-91.11914384544905,0.0,0.0,0.0,0.0,0.0,0.0,0.0,30,-12.6875,4.75,-17.375,-0.004363323129985824,-0.001090830782496456,0.003272492347489368,0.66,-3.94,8.64,0.67,-3.94,-1.11,0.0,0.0,9.8,0.9414384,-2.5889556,8.7867584
2023-12-14 05:56:26.724500,1024.1910200333048,27.44217014312744,-90.33741445126446,0.0,0.0,0.0,0.0,0.0,0.0,0.0,29,-13.375,4.0625,-17.375,-0.001090830782496456,-0.001090830782496456,0.006544984694978736,0.67,-3.94,8.620000000000001,0.0,0.0,0.0,0.0,0.0,0.0,0.784532,-2.4712758,9.022118
2023-12-14 05:56:27.771933,1024.2142960238552,27.42806287133135,-91.30428784824517,0.0,0.0,0.0,0.0,0.0,0.0,0.0,-98,-12.25,4.375,-16.5625,-0.001090830782496456,0.001090830782496456,0.001090830782496456,0.65,-3.94,8.620000000000001,0.0,0.0,0.0,0.0,0.0,0.0,0.5883989999999999,-2.5105024,9.1005712
2023-12-14 05:56:28.752107,1024.3065713318367,27.413955570198596,-91.48942845328109,8.0,0.0,0.0,0.0,0.0,0.0,0.0,29,-5.0625,5.1875,-15.75,-0.001090830782496456,-0.004363323129985824,0.004363323129985824,1.93,-3.93,8.620000000000001,0.0,0.0,0.0,0.0,0.0,0.0,0.6668522,-2.2751428,8.4729456
2023-12-14 05:56:29.744437,1024.319452033692,27.418658007169142,-91.7808352504432,8.0,0.0,0.0,0.0,0.0,0.0,0.0,30,-13.0625,4.75,-17.75,0.002181661564992912,-0.003272492347489368,0.002181661564992912,0.66,-3.91,8.64,0.0,0.0,0.0,0.0,0.0,0.0,0.7453053999999999,-2.7066354,8.669078599999999
2023-12-14 05:56:30.731595,1024.3539521991263,27.42336044088006,-91.40370587264398,8.0,0.0,0.0,0.0,0.0,0.0,0.0,-98,-13.0625,4.375,-18.1875,-0.001090830782496456,-0.007635815477475192,0.006544984694978736,1.95,-3.92,8.620000000000001,0.0,0.0,0.0,0.0,0.0,0.0,0.9414384,-2.6281822,8.9044382
2023-12-14 05:56:31.721244,1024.3074000965164,27.42806287133135,-91.29743472471746,8.0,0.0,0.0,0.0,0.0,0.0,0.0,-98,-13.0625,4.0625,-16.25,0.0,-0.001090830782496456,0.003272492347489368,0.67,-3.93,8.620000000000001,0.0,0.0,0.0,0.0,0.0,0.0,0.784532,-2.7066354,8.8652116
2023-12-14 05:56:32.723893,1024.3074000965164,27.42806287133135,-91.68826406602624,8.0,0.0,0.0,0.0,0.0,0.0,0.0,30,-11.875,3.6875,-18.5625,0.0,-0.002181661564992912,0.004363323129985824,0.66,-3.91,8.64,0.0,0.0,0.0,0.0,0.0,0.0,0.9022117999999999,-2.7458620000000002,8.7867584
2023-12-14 05:56:33.713322,1024.2608480380936,27.418658007169142,-91.49627767791583,8.0,0.0,0.0,0.0,0.0,0.0,0.0,30,-12.25,4.75,-17.375,0.001090830782496456,-0.002181661564992912,0.003272492347489368,1.94,-3.95,8.67,0.0,0.0,0.0,0.0,0.0,0.0,0.6668522,-2.3928225999999997,8.5513988
2023-12-14 05:56:34.705918,1024.2496246321855,27.40925312996842,-91.59569203216182,8.0,0.0,0.0,0.0,0.0,0.0,0.0,29,-13.0625,4.75,-17.0,-0.001090830782496456,-0.004363323129985824,0.003272492347489368,0.67,-3.92,8.620000000000001,0.0,0.0,0.0,0.0,0.0,0.0,0.5883989999999999,-2.4320492,8.8652116
2023-12-14 05:56:35.688531,1024.226348853776,27.418658007169142,-91.11229457686669,8.0,0.0,0.0,0.0,0.0,0.0,0.0,30,-4.6875,4.375,-18.1875,0.001090830782496456,-0.006544984694978736,0.004363323129985824,1.94,-3.92,8.63,0.0,0.0,0.0,0.0,0.0,0.0,0.5883989999999999,-2.6674088,8.7867584
2023-12-14 05:56:36.680049,1024.2849523443626,27.418658007169142,-91.11914384544905,8.0,0.0,0.0,0.0,0.0,0.0,0.0,30,-12.25,4.375,-16.25,0.0,-0.002181661564992912,0.003272492347489368,1.94,-3.93,8.64,0.0,0.0,0.0,0.0,0.0,0.0,0.6276256,-2.5889556,8.747531799999999
2023-12-14 05:56:37.674127,1024.2255189578916,27.44217014312744,-90.91343694188629,8.0,0.0,0.0,0.0,0.0,0.0,0.0,30,-4.6875,4.375,-17.375,-0.001090830782496456,-0.003272492347489368,0.003272492347489368,1.95,-3.9,8.63,0.0,0.0,0.0,0.0,0.0,0.0,0.980665,-2.549729,8.9044382
2023-12-14 05:56:38.667951,1024.2496246321855,27.42336044088006,-90.82772674415835,8.0,0.0,0.0,0.0,0.0,0.0,0.0,30,-12.25,4.75,-17.75,0.0,-0.003272492347489368,0.003272492347489368,1.92,-3.93,8.66,0.0,0.0,0.0,0.0,0.0,0.0,0.7060788,-2.7458620000000002,8.825985
2023-12-14 05:56:39.660135,1024.2625045785803,27.39984823972918,-91.98648187502599,8.0,0.0,0.0,0.0,0.0,0.0,0.0,-99,-12.6875,4.375,-17.75,0.0,-0.002181661564992912,0.001090830782496456,1.9100000000000001,-3.95,8.69,0.0,0.0,0.0,0.0,0.0,0.0,0.7060788,-2.5105024,8.8652116
2023-12-14 05:56:40.657126,1024.2986561559376,27.390443336451426,-91.60935556810009,8.0,0.0,0.0,0.0,0.0,0.0,0.0,29,-3.875,5.1875,-16.5625,0.0,-0.001090830782496456,0.003272492347489368,1.95,-3.96,8.66,0.0,0.0,0.0,0.0,0.0,0.0,0.9022117999999999,-2.7850886,9.1397978
2023-12-14 05:56:41.650156,1024.2986561559376,27.381038420135155,-91.70875352228776,8.0,0.0,0.0,0.0,0.0,0.0,0.0,-99,-12.6875,4.375,-17.0,0.0,-0.003272492347489368,0.00545415391248228,1.95,-3.93,8.63,0.0,0.0,0.0,0.0,0.0,0.0,0.7453053999999999,-2.4712758,8.7867584
2023-12-14 05:56:42.634794,1024.2753817277019,27.385740879923105,-91.13281912078402,8.0,0.0,0.0,0.0,0.0,0.0,0.0,29,-12.25,4.375,-17.0,-0.002181661564992912,-0.004363323129985824,0.003272492347489368,1.94,-3.95,8.69,0.0,0.0,0.0,1.28,0.0,0.0,0.6276256,-2.549729,8.825985
2023-12-14 05:56:43.627234,1024.3211053475598,27.39984823972918,-91.60935556810009,8.0,0.0,0.0,0.0,0.0,0.0,0.0,29,-12.6875,4.75,-18.5625,-0.001090830782496456,-0.002181661564992912,0.004363323129985824,1.92,-3.94,8.65,0.0,0.0,0.0,0.0,0.0,0.0,0.6276256,-2.549729,8.747531799999999
2023-12-14 05:56:44.618427,1024.28660609098,27.395145789720118,-91.22539540203314,8.0,0.0,0.0,0.0,0.0,0.0,0.0,29,-13.0625,4.75,-17.375,0.0,-0.00545415391248228,0.002181661564992912,1.95,-3.95,8.66,0.0,0.0,0.0,0.0,0.0,0.0,0.7060788,-2.5105024,8.9044382
2023-12-14 05:56:45.608426,1024.2408831780663,27.395145789720118,-90.94766400975655,8.0,0.0,0.0,0.0,0.0,0.0,0.0,29,-11.875,4.75,-16.5625,-0.002181661564992912,-0.004363323129985824,0.002181661564992912,0.64,-3.93,8.65,0.0,0.0,0.0,0.0,0.0,0.0,0.784532,-2.5889556,8.9436648
2023-12-14 05:56:46.596870,1024.2994809215093,27.381038420135155,-91.2322233364798,0.0,0.0,0.0,0.0,0.0,0.0,0.0,29,-12.25,5.1875,-17.0,0.001090830782496456,-0.002181661564992912,0.003272492347489368,1.95,-3.96,8.69,0.0,0.0,0.0,0.0,0.0,0.0,0.8237586,-2.4712758,8.9828914
2023-12-14 05:56:47.586710,1024.3227549033656,27.36693102121353,-91.43782605248833,8.0,0.0,0.0,0.0,0.0,0.0,0.0,29,-13.375,4.375,-17.75,-0.001090830782496456,-0.00545415391248228,0.00545415391248228,1.93,-3.94,8.65,0.0,0.0,0.0,0.0,0.0,0.0,0.9022117999999999,-2.549729,8.9436648
2023-12-14 05:56:48.579513,1024.2184349029685,27.385740879923105,-90.27912186327059,0.0,0.0,0.0,0.0078125,0.0,0.0,0.0,29,-12.6875,3.6875,-18.1875,-0.002181661564992912,-0.001090830782496456,0.002181661564992912,0.66,-3.94,8.65,0.0,0.0,0.0,0.0,0.0,0.0,0.7060788,-2.5105024,8.747531799999999
2023-12-14 05:56:49.574092,1024.2425331173276,27.36693102121353,-91.25266061699655,8.0,0.0,0.0,0.0,0.0,0.0,0.0,-99,-13.375,4.0625,-17.0,-0.001090830782496456,-0.003272492347489368,0.004363323129985824,1.94,-3.93,8.65,0.0,0.0,0.0,0.0,0.0,0.0,0.7453053999999999,-2.549729,8.629852
2023-12-14 05:56:50.565678,1024.3356262559987,27.36693102121353,-91.43782605248833,8.0,0.0,0.0,0.0078125,0.0,0.0,0.0,29,-12.6875,4.375,-16.5625,-0.001090830782496456,-0.00545415391248228,0.002181661564992912,0.68,-3.92,8.620000000000001,0.0,0.0,0.0,0.0,0.0,0.0,0.6276256,-2.5105024,8.9828914
2023-12-14 05:56:51.553795,1024.3019495811675,27.362228548387066,-91.73596424837784,8.0,0.0,0.0,0.0,0.0,0.0,0.0,29,-13.75,4.75,-16.5625,-0.002181661564992912,-0.003272492347489368,0.00545415391248228,0.65,-3.94,8.66,0.0,0.0,0.0,0.0,0.0,0.0,0.7453053999999999,-2.549729,8.9436648
2023-12-14 05:56:52.540999,1024.3252221907353,27.352823592955247,-91.83533415225519,8.0,0.0,0.0,0.0,0.0,0.0,0.0,-99,-13.375,5.1875,-17.375,-0.003272492347489368,-0.003272492347489368,0.003272492347489368,0.65,-3.92,8.65,0.0,0.0,0.0,0.0,0.0,0.0,0.8629851999999999,-2.5889556,8.825985
2023-12-14 05:56:53.532958,1024.2778545781698,27.352823592955247,-91.25945753632611,8.0,0.0,0.0,0.0,0.0,0.0,0.0,29,-3.875,5.1875,-17.75,0.0,-0.006544984694978736,0.003272492347489368,0.67,-3.91,8.6,0.0,0.0,0.0,0.0,0.0,0.0,0.784532,-2.6281822,8.5121722
2023-12-14 05:56:54.521844,1024.2907240160916,27.362228548387066,-91.92791990853104,8.0,0.0,0.0,0.0,0.0,0.0,0.0,29,-12.25,4.75,-16.5625,0.0,-0.002181661564992912,0.003272492347489368,1.9100000000000001,-3.93,8.65,0.0,0.0,0.0,0.0,0.0,0.0,0.7060788,-2.4320492,8.5513988
2023-12-14 05:56:55.514805,1024.3035906567397,27.3387161353603,-91.08107015652998,8.0,0.0,0.0,0.0,0.0,0.0,0.0,29,-13.375,4.375,-16.5625,-0.003272492347489368,-0.00545415391248228,0.004363323129985824,1.95,-3.94,8.65,0.0,0.0,0.0,0.0,0.0,0.0,0.8237586,-2.4320492,8.9044382
2023-12-14 05:56:56.506276,1024.2923646095953,27.32931114733219,-91.27302811388354,8.0,0.0,0.0,0.0,0.0,0.0,0.0,29,-5.75,4.75,-16.5625,-0.003272492347489368,-0.003272492347489368,0.003272492347489368,0.64,-3.94,8.63,0.0,0.0,0.0,0.0,0.0,0.0,0.8629851999999999,-2.7850886,8.9828914
2023-12-14 05:56:57.495905,1024.2819572055246,27.310501132160425,-91.67045768067571,8.0,0.0,0.0,0.0,0.0,0.0,0.0,29,-11.5625,4.375,-17.375,0.1407171709420428,-0.001090830782496456,0.003272492347489368,1.94,-3.91,8.620000000000001,0.0,0.0,0.0,0.0,0.0,0.0,0.8237586,-2.6281822,8.9436648
2023-12-14 05:56:58.485107,1024.2595046122053,27.31520364084281,-91.28656767682561,8.0,0.0,0.0,0.0,0.0,0.0,0.0,29,-12.25,4.0625,-15.75,0.001090830782496456,-0.004363323129985824,0.003272492347489368,0.67,-3.91,8.63,0.0,0.0,0.0,0.0,0.0,0.0,0.7060788,-2.6674088,8.8652116
2023-12-14 05:56:59.475545,1024.1647825936645,27.30579862021841,-90.6113382540315,8.0,0.0,0.0,0.0,0.0,0.0,0.0,29,-4.6875,4.75,-17.375,-0.001090830782496456,-0.004363323129985824,0.00545415391248228,1.95,-3.92,8.59,0.0,0.0,0.0,0.0,0.0,0.0,0.6668522,-2.4712758,9.022118
2023-12-14 05:57:00.465615,1024.2723649029522,27.296393586555496,-91.68395064053384,0.0,0.0,0.0,0.0,0.0,0.0,0.0,29,-11.875,4.375,-17.0,0.001090830782496456,0.001090830782496456,0.0,0.66,-3.91,8.66,0.0,0.0,0.0,0.0,0.0,0.0,0.980665,-2.6281822,8.8652116
2023-12-14 05:57:01.434360,1024.261138122546,27.296393586555496,-92.06781129749575,8.0,0.0,0.0,0.0078125,0.0,0.0,0.0,29,-13.75,4.0625,-18.1875,0.0,-0.00545415391248228,0.003272492347489368,1.95,-3.93,8.65,0.0,0.0,0.0,0.0,0.0,0.0,0.5883989999999999,-2.6674088,9.022118
2023-12-14 05:57:02.431055,1024.308491335437,27.282286011613905,-91.39941743594481,8.0,0.0,0.0,0.0,0.0,0.0,0.0,29,-5.0625,4.75,-18.1875,-0.004363323129985824,-0.00545415391248228,0.003272492347489368,0.67,-3.96,8.66,0.0,0.0,0.0,0.0,0.0,0.0,0.7453053999999999,-2.5889556,8.7867584
2023-12-14 05:57:03.414686,1024.2844075079488,27.291691064834595,-91.30681886932565,8.0,0.0,0.0,0.0,0.0,0.0,0.0,29,-11.875,3.6875,-17.75,0.0,-0.004363323129985824,0.002181661564992912,0.66,-3.95,8.67,0.0,0.0,0.0,0.0,0.0,0.0,0.7453053999999999,-2.6281822,9.022118
2023-12-14 05:57:04.403271,1024.298889403684,27.26347586605698,-91.61152820043223,8.0,0.0,0.0,0.0,0.0,0.0,0.0,29,-12.6875,4.75,-16.5625,-0.002181661564992912,-0.003272492347489368,0.004363323129985824,0.66,-3.91,8.65,0.0,0.0,0.0,0.0,0.0,0.0,0.7060788,-2.5105024,9.0613446
2023-12-14 05:57:05.393331,1024.264393869341,27.244665668345988,-91.42631819015685,8.0,0.0,0.0,0.0078125,0.0,0.0,0.0,29,-12.25,4.75,-16.5625,-0.001090830782496456,-0.003272492347489368,0.0,1.95,-3.91,8.61,0.0,0.0,0.0,0.0,0.0,0.0,0.784532,-2.549729,8.8652116
2023-12-14 05:57:06.387836,1024.2764334428261,27.239963110769168,-91.71754735828985,8.0,0.0,0.0,0.0,0.0,0.0,0.0,29,-13.75,4.375,-16.5625,-0.003272492347489368,-0.001090830782496456,0.001090830782496456,1.95,-3.94,8.63,0.0,0.0,0.0,1.28,0.0,0.0,0.5491724,-2.5105024,8.8652116
2023-12-14 05:57:07.380677,1024.253977468436,27.23526054993272,-91.72424344230365,8.0,0.0,0.0,0.0,0.0,0.0,0.0,29,-12.6875,4.0625,-17.75,0.14180800172453928,-0.002181661564992912,0.001090830782496456,0.67,-3.9,8.63,0.0,0.0,0.0,0.0,0.0,0.0,0.6668522,-2.5889556,8.747531799999999
2023-12-14 05:57:08.376812,1024.2884725554745,27.23055798583664,-91.63163392662676,8.0,0.0,0.0,0.0078125,0.0,0.0,0.0,29,-12.25,4.75,-18.1875,-0.001090830782496456,-0.003272492347489368,0.002181661564992912,0.66,-3.92,8.65,0.0,0.0,0.0,0.0,0.0,0.0,0.8237586,-2.5105024,9.0613446
2023-12-14 05:57:09.359852,1024.2202934814934,27.221152847865596,-90.96327829177443,8.0,0.0,0.0,0.0,0.0,0.0,0.0,29,-12.25,4.375,-17.75,-0.001090830782496456,-0.006544984694978736,0.001090830782496456,0.66,-3.93,8.61,0.0,0.0,0.0,0.0,0.0,0.0,0.8629851999999999,-2.4712758,8.7867584
2023-12-14 05:57:10.345367,1024.1962162500033,27.23526054993272,-90.47339352862183,8.0,0.0,0.0,0.0078125,0.0,0.0,0.0,-99,-13.0625,4.375,-16.5625,0.0,-0.00545415391248228,0.004363323129985824,0.65,-3.95,8.63,0.0,0.0,0.0,0.0,0.0,0.0,0.784532,-2.6674088,8.9044382
2023-12-14 05:57:11.333434,1024.2202934814934,27.211747696856037,-91.64499897821378,8.0,0.0,0.0,0.0,0.0,0.0,0.0,29,-13.375,5.1875,-18.1875,0.001090830782496456,-0.002181661564992912,0.002181661564992912,0.63,-3.93,8.620000000000001,0.0,0.0,0.0,0.0,0.0,0.0,0.6668522,-2.6674088,9.022118
2023-12-14 05:57:12.320765,1024.3037435406704,27.20234253280796,-90.79143324031101,8.0,0.0,0.0,0.0078125,0.0,0.0,0.0,29,-5.0625,4.375,-17.0,-0.001090830782496456,-0.004363323129985824,0.004363323129985824,1.94,-3.93,8.64,0.0,0.0,0.0,1.28,0.0,0.0,0.8237586,-2.3928225999999997,8.7867584
2023-12-14 05:57:13.314289,1024.2451771571514,27.207045116461813,-91.85022587517004,8.0,0.0,0.0,0.0,0.0,0.0,0.0,29,-4.6875,3.6875,-17.0,0.0,-0.004363323129985824,0.004363323129985824,0.66,-3.95,8.66,0.0,0.0,0.0,0.0,0.0,0.0,0.5883989999999999,-2.7066354,8.8652116
2023-12-14 05:57:14.308478,1024.257213461496,27.19763994589448,-91.65833301736953,8.0,0.0,0.0,0.0,0.0,0.0,0.0,29,-13.75,4.0625,-17.0,-0.003272492347489368,-0.002181661564992912,0.002181661564992912,0.67,-3.94,8.64,0.0,0.0,0.0,0.0,0.0,0.0,0.7060788,-2.6281822,8.9436648
2023-12-14 05:57:15.294864,1024.245984505192,27.18823476228863,-91.37381887002208,8.0,0.0,0.0,0.0,0.0,0.0,0.0,-99,-12.25,4.0625,-16.5625,-0.002181661564992912,-0.00545415391248228,0.004363323129985824,0.66,-3.93,8.700000000000001,0.0,0.0,0.0,0.0,0.0,0.0,0.5883989999999999,-2.2751428,8.629852
2023-12-14 05:57:16.286193,1024.2941241636524,27.169424355961382,-91.48639131870924,8.0,0.0,0.0,0.0,0.0,0.0,0.0,29,-12.25,4.75,-17.375,-0.001090830782496456,-0.002181661564992912,0.001090830782496456,1.94,-3.95,8.64,1.28,0.0,0.0,0.0,0.0,0.0,0.6276256,-2.3535959999999996,8.629852
2023-12-14 05:57:17.274393,1024.3061579261664,27.164721746230498,-91.4930273448782,8.0,0.0,0.0,0.0,0.0,0.0,0.0,29,-13.375,4.75,-17.375,-0.001090830782496456,-0.003272492347489368,0.004363323129985824,1.96,-3.87,8.64,0.0,0.0,0.0,0.0,0.0,0.0,0.7060788,-2.7066354,8.7867584
2023-12-14 05:57:18.259674,1024.2949277783373,27.164721746230498,-91.87015710012325,8.0,0.0,0.0,0.0078125,0.0,0.0,0.0,29,-12.6875,4.375,-17.375,0.001090830782496456,-0.002181661564992912,0.003272492347489368,1.94,-3.94,8.61,0.0,0.0,0.0,0.0,0.0,0.0,0.784532,-2.5105024,8.9828914
2023-12-14 05:57:19.249609,1024.3302240686683,27.14591127471067,-91.20851785477845,8.0,0.0,0.0,0.0,0.0,0.0,0.0,-99,-13.375,5.1875,-17.375,-0.001090830782496456,-0.002181661564992912,0.003272492347489368,0.65,-3.93,8.66,0.0,0.0,0.0,0.0,0.0,0.0,0.8629851999999999,-2.7850886,9.022118
2023-12-14 05:57:20.245761,1024.2371712297877,27.160019133239985,-91.87678533605227,8.0,0.0,0.0,0.0,0.0,0.0,0.0,29,-3.875,5.1875,-16.1875,0.0,-0.004363323129985824,0.001090830782496456,1.95,-3.91,8.540000000000001,0.0,0.0,0.0,0.0,0.0,0.0,0.8237586,-2.6674088,8.5513988
2023-12-14 05:57:21.238755,1024.1786106965176,27.164721746230498,-90.42763287742228,8.0,0.0,0.0,0.0,0.0,0.0,0.0,29,-12.25,4.75,-17.375,0.0,-0.002181661564992912,0.003272492347489368,1.95,-3.94,8.65,0.0,0.0,0.0,0.0,0.0,0.0,0.7453053999999999,-2.6674088,8.9828914
2023-12-14 05:57:22.228311,1024.2853015560877,27.14120864868164,-91.49965561797626,8.0,0.0,0.0,0.0,0.0,0.0,0.0,29,-4.6875,4.375,-16.5625,-0.001090830782496456,-0.004363323129985824,0.003272492347489368,1.93,-3.89,8.620000000000001,0.0,0.0,0.0,0.0,0.0,0.0,0.6276256,-2.8635417999999997,8.9828914
2023-12-14 05:57:23.225067,1024.4136434814423,27.127100751036778,-91.99585364235251,8.0,0.0,0.0,0.0,0.0,0.0,0.0,29,-12.25,4.375,-16.5625,-0.003272492347489368,-0.002181661564992912,0.002181661564992912,1.93,-3.92,8.64,0.0,0.0,0.0,1.28,0.0,0.0,0.7453053999999999,-2.5889556,8.9436648
2023-12-14 05:57:24.215904,1024.3229904422055,27.112992824055254,-91.53268068824883,8.0,0.0,0.0,0.0,0.0,0.0,0.0,-99,-13.0625,4.75,-17.0,0.0,-0.00545415391248228,0.001090830782496456,1.94,-3.95,8.620000000000001,0.0,0.0,0.0,0.0,0.0,0.0,0.7453053999999999,-2.549729,8.8652116
2023-12-14 05:57:25.208762,1024.2291483395757,27.122398111969233,-91.61872554215307,8.0,0.0,0.0,0.0,0.0,0.0,0.0,29,-14.1875,4.75,-16.5625,0.0,-0.00545415391248228,0.006544984694978736,0.67,-3.94,8.620000000000001,0.0,0.0,0.0,0.0,0.0,0.0,0.6668522,-2.6281822,8.7083052
2023-12-14 05:57:26.197146,1024.3566859163404,27.117695469642058,-91.22838531307939,8.0,0.0,0.0,0.0,0.0,0.0,0.0,29,-12.25,5.1875,-17.375,0.0,-0.00545415391248228,0.004363323129985824,1.94,-3.9,8.63,0.0,0.0,0.0,0.0,0.0,0.0,0.784532,-2.5889556,9.022118
2023-12-14 05:57:27.186379,1024.2788587132245,27.070668867090717,-91.06948647838124,8.0,0.0,0.0,0.0,0.0,0.0,0.0,29,-3.1875,5.1875,-17.375,-0.001090830782496456,-0.004363323129985824,0.00545415391248228,1.95,-3.95,8.63,0.0,0.0,0.0,0.0,0.0,0.0,0.8629851999999999,-2.7850886,8.825985
2023-12-14 05:57:28.176622,1024.326171129108,27.070668867090717,-91.36055359527919,8.0,0.0,0.0,0.0078125,0.0,0.0,0.0,29,-13.0625,5.1875,-17.0,-0.002181661564992912,-0.002181661564992912,0.004363323129985824,0.67,-3.94,8.66,0.0,0.0,0.0,0.0,0.0,0.0,0.8629851999999999,-2.5889556,8.9436648
2023-12-14 05:57:33.751826,1024.374271788395,27.04245274909772,-91.38021750844034,8.0,0.0,0.0,0.0,0.0,0.0,0.0,29,-12.6875,4.0625,-16.1875,-0.002181661564992912,-0.004363323129985824,0.004363323129985824,1.95,-3.93,8.64,0.0,0.0,0.0,0.0,0.0,0.0,0.7060788,-2.7458620000000002,8.7867584
2023-12-14 05:57:34.746045,1024.2331356965371,27.065966188907623,-91.07605858689008,8.0,0.0,0.0,0.0,0.0,0.0,0.0,29,-4.6875,4.75,-17.0,0.001090830782496456,-0.003272492347489368,0.002181661564992912,0.68,-3.92,8.63,0.0,0.0,0.0,0.0,0.0,0.0,0.784532,-2.8243152,9.1790244
2023-12-14 05:57:35.742050,1024.3389891097995,27.051858134800568,-91.37367062363346,8.0,0.0,0.0,0.0,0.0,0.0,0.0,29,-12.6875,4.0625,-18.5625,0.002181661564992912,-0.00545415391248228,0.004363323129985824,0.65,-3.89,8.61,0.0,0.0,0.0,0.0,0.0,0.0,0.5883989999999999,-2.4712758,9.022118
2023-12-14 05:57:36.731386,1024.3173132616062,27.04245274909772,-91.77042025396405,8.0,0.0,0.0,0.0,0.0,0.0,0.0,-99,-12.25,4.375,-18.0625,-0.002181661564992912,-0.003272492347489368,0.004363323129985824,1.95,-3.91,8.64,0.0,0.0,0.0,0.0,0.0,0.0,0.6668522,-2.7066354,8.9828914
2023-12-14 05:57:37.723993,1024.3518042932346,27.04715544357896,-91.5785901650759,8.0,0.0,0.0,0.0,0.0,0.0,0.0,29,-11.875,4.375,-15.375,-0.003272492347489368,-0.003272492347489368,0.002181661564992912,1.93,-3.93,8.67,0.0,0.0,0.0,0.0,0.0,0.0,0.9022117999999999,-2.5889556,8.9044382
2023-12-14 05:57:38.708398,1024.330125849899,27.023641938576475,-91.4924650733893,8.0,0.0,0.0,0.0,0.0,0.0,0.0,29,-13.375,4.375,-17.375,-0.002181661564992912,-0.006544984694978736,0.00545415391248228,1.94,-3.92,8.620000000000001,0.0,0.0,0.0,0.0,0.0,0.0,0.7060788,-2.5889556,9.1005712
2023-12-14 05:57:39.697942,1024.2828227062107,27.033047350356355,-91.48593951745464,8.0,0.0,0.0,0.0,0.0,0.0,0.0,29,-13.375,5.1875,-16.1875,-0.001090830782496456,-0.003272492347489368,0.004363323129985824,0.68,-3.91,8.61,0.0,0.0,0.0,0.0,0.0,0.0,0.8629851999999999,-2.6674088,8.825985
2023-12-14 05:57:40.684174,1024.364616679412,27.023641938576475,-91.77694384620638,8.0,0.0,0.0,0.0,0.0,0.0,0.0,29,-12.6875,5.5625,-15.75,-0.001090830782496456,-0.00545415391248228,0.004363323129985824,0.66,-3.84,8.46,0.0,0.0,0.0,0.0,0.0,0.0,0.7453053999999999,-2.6674088,8.825985
2023-12-14 05:57:41.671835,1024.2972112418147,27.000128352083266,-91.21450223896274,8.0,0.0,0.0,0.0,0.0,0.0,0.0,29,-12.25,4.0625,-18.5625,-0.001090830782496456,-0.003272492347489368,0.003272492347489368,0.66,-3.93,8.65,0.0,0.0,0.0,0.0,0.0,0.0,0.8237586,-2.4320492,9.1005712
2023-12-14 05:57:42.661048,1024.2530597159832,26.981317424215376,-91.90210712421728,8.0,0.0,0.0,0.0078125,0.0,0.0,0.0,29,-5.375,4.375,-16.5625,-0.003272492347489368,-0.003272492347489368,0.001090830782496456,1.93,-3.91,8.65,0.0,0.0,0.0,0.0,0.0,0.0,0.7060788,-2.3928225999999997,8.9436648
2023-12-14 05:57:43.654313,1024.3429356409397,27.000128352083266,-91.69731110744033,8.0,0.0,0.0,0.0078125,0.0,0.0,0.0,29,-11.5625,5.1875,-16.5625,-0.004363323129985824,-0.001090830782496456,0.004363323129985824,0.65,-3.93,8.67,0.0,0.0,0.0,0.0,0.0,0.0,0.7453053999999999,-2.5105024,8.7083052
2023-12-14 05:57:44.642058,1024.2851898285896,27.000128352083266,-91.31367131123723,0.0,0.0,0.0,0.0,0.0,0.0,0.0,-99,-13.75,4.75,-16.875,0.0,-0.004363323129985824,0.004363323129985824,1.96,-3.93,8.63,0.0,0.0,0.0,0.0,0.0,0.0,0.8237586,-2.6281822,9.022118
2023-12-14 05:57:45.646197,1024.2266562187913,27.004831075901166,-91.11532842286363,8.0,0.0,0.0,0.0,0.0,0.0,0.0,29,-13.0625,4.375,-16.875,-0.002181661564992912,-0.003272492347489368,0.004363323129985824,1.94,-3.94,8.64,0.0,0.0,0.0,1.28,0.0,0.0,0.8629851999999999,-2.5889556,8.9828914
2023-12-14 05:57:46.638424,1024.3196797344183,27.014236513758078,-91.88262358817425,8.0,0.0,0.0,0.0,0.0,0.0,0.0,29,-11.875,4.75,-17.75,0.001090830782496456,-0.006544984694978736,0.003272492347489368,0.66,-3.9,8.61,0.0,0.0,0.0,0.0,0.0,0.0,0.784532,-2.4712758,8.7083052
2023-12-14 05:57:47.624604,1024.2491228238118,27.01893922779709,-91.30063567100689,8.0,0.0,0.0,0.0,0.0,0.0,0.0,29,-12.6875,4.75,-17.375,-0.004363323129985824,-0.003272492347489368,0.001090830782496456,0.65,-3.92,8.6,0.0,0.0,0.0,0.0,0.0,0.0,0.784532,-2.5889556,8.8652116
2023-12-14 05:57:48.613194,1024.3060797399082,27.033047350356355,-91.4924650733893,8.0,0.0,0.0,0.0,0.0,0.0,0.0,29,-11.5625,4.375,-17.75,-0.003272492347489368,-0.002181661564992912,0.001090830782496456,1.9000000000000001,-3.94,8.64,0.0,0.0,0.0,0.0,0.0,0.0,0.7060788,-2.7066354,8.9436648
2023-12-14 05:57:49.604989,1024.3878735230237,27.02834464609623,-91.58511765066241,8.0,0.0,0.0,0.0,0.0,0.0,0.0,29,-4.6875,4.0625,-16.5625,-0.004363323129985824,-0.004363323129985824,0.00545415391248228,1.95,-3.95,8.64,1.28,0.0,0.0,0.0,0.0,0.0,0.5491724,-2.4712758,8.669078599999999
2023-12-14 05:57:50.596197,1024.3413598468471,27.02834464609623,-91.58511765066241,8.0,0.0,0.0,0.0,0.0,0.0,0.0,29,-12.25,4.375,-16.5625,-0.002181661564992912,-0.00545415391248228,0.00545415391248228,1.96,-3.94,8.64,0.0,0.0,0.0,0.0,0.0,0.0,0.6668522,-2.5105024,8.825985
2023-12-14 05:57:51.581202,1024.3413598468471,27.033047350356355,-91.39328801944147,8.0,0.0,0.0,0.0078125,0.0,0.0,0.0,29,-14.1875,4.375,-16.5625,0.0,-0.004363323129985824,0.004363323129985824,0.65,-3.92,8.620000000000001,0.0,0.0,0.0,0.0,0.0,0.0,0.8237586,-2.6674088,8.747531799999999
2023-12-14 05:57:52.573717,1024.2603561212966,27.023641938576475,-92.06141879075956,8.0,0.0,0.0,0.0078125,0.0,0.0,0.0,29,-13.0625,5.1875,-16.5625,-0.001090830782496456,-0.004363323129985824,0.002181661564992912,0.63,-3.93,-319.03000000000003,0.0,0.0,0.0,0.0,0.0,0.0,0.7060788,-2.6674088,8.9436648
2023-12-14 05:57:53.561294,1024.296423838943,27.014236513758078,-91.68429104009475,8.0,0.0,0.0,0.0,0.0,0.0,0.0,29,-13.0625,4.75,-17.375,-0.003272492347489368,-0.004363323129985824,0.003272492347489368,1.94,-3.93,8.69,0.0,0.0,0.0,0.0,0.0,0.0,0.8237586,-2.549729,9.0613446
2023-12-14 05:57:54.552195,1024.2972112418147,26.99072289466858,-91.60465359136745,8.0,0.0,0.0,0.0078125,0.0,0.0,0.0,29,-5.375,4.375,-16.5625,0.1407171709420428,-0.004363323129985824,0.003272492347489368,0.67,-3.91,8.58,0.0,0.0,0.0,0.0,0.0,0.0,0.6668522,-2.6281822,8.8652116
2023-12-14 05:57:55.541716,1024.2747427358165,26.99072289466858,-91.89562036461797,8.0,0.0,0.0,0.0,0.0,0.0,0.0,29,-13.0625,4.75,-16.875,-0.001090830782496456,-0.003272492347489368,0.002181661564992912,1.94,-3.89,8.620000000000001,0.0,0.0,0.0,0.0,0.0,0.0,0.7060788,-2.549729,8.9044382
2023-12-14 05:57:56.537539,1024.1921672942362,27.000128352083266,-91.01614986280215,8.0,0.0,0.0,0.0,0.0,0.0,0.0,29,-11.1875,4.75,-16.1875,0.0,-0.004363323129985824,0.004363323129985824,1.92,-3.91,8.65,0.0,0.0,0.0,0.0,0.0,0.0,0.6276256,-2.8635417999999997,9.0613446
2023-12-14 05:57:57.530387,1024.3565274846706,26.995425625005737,-91.31367131123723,8.0,0.0,0.0,0.0,0.0,0.0,0.0,29,-4.6875,5.1875,-17.75,0.001090830782496456,-0.001090830782496456,0.004363323129985824,1.9100000000000001,-3.96,8.67,0.0,0.0,0.0,0.0,0.0,0.0,0.6668522,-2.6281822,8.9436648
2023-12-14 05:57:58.522002,1024.3100179591413,26.981317424215376,-91.90210712421728,8.0,0.0,0.0,0.0078125,0.0,0.0,0.0,29,-13.375,5.1875,-16.875,-0.002181661564992912,-0.002181661564992912,0.002181661564992912,0.67,-3.95,8.66,0.0,0.0,0.0,0.0,0.0,0.0,0.7453053999999999,-2.7066354,8.9044382
2023-12-14 05:57:59.511333,1024.2747427358165,26.986020161071792,-92.27923176461628,8.0,0.0,0.0,0.0,0.0,0.0,0.0,29,-14.1875,5.1875,-17.75,-0.002181661564992912,-0.004363323129985824,0.001090830782496456,0.65,-3.92,8.61,0.0,0.0,0.0,0.0,0.0,0.0,0.7453053999999999,-2.5889556,8.7867584
2023-12-14 05:58:00.503310,1024.3324874089349,26.986020161071792,-91.60465359136745,0.0,0.0,0.0,0.0,0.0,0.0,0.0,-99,-10.75,4.375,-16.875,-0.003272492347489368,0.001090830782496456,-0.002181661564992912,0.65,-3.93,8.64,0.0,0.0,0.0,0.0,0.0,0.0,0.8629851999999999,-2.5889556,8.5513988
2023-12-14 05:58:01.472608,1024.355742634727,26.981317424215376,-91.51199522479445,8.0,0.0,0.0,0.0,0.0,0.0,0.0,29,-13.0625,4.375,-17.25,0.13962634015954636,-0.007635815477475192,0.003272492347489368,1.92,-3.93,8.65,0.0,0.0,0.0,0.0,0.0,0.0,0.9414384,-2.7850886,9.0613446
2023-12-14 05:58:02.464215,1024.3677626797926,26.986020161071792,-92.08742778202271,0.0,0.0,0.0,0.0,0.0,0.0,0.0,29,-12.6875,4.75,-16.5625,-0.003272492347489368,-0.003272492347489368,0.00545415391248228,0.64,-3.94,8.65,0.0,0.0,0.0,0.0,0.0,0.0,0.6668522,-2.5105024,8.747531799999999
2023-12-14 05:58:03.478955,1024.3805657169953,26.981317424215376,-91.80944551953978,8.0,0.0,0.0,0.0,0.0,0.0,0.0,29,-12.25,4.75,-16.5625,-0.001090830782496456,-0.003272492347489368,0.001090830782496456,1.93,-3.91,8.65,1.28,0.0,0.0,0.0,0.0,0.0,0.6276256,-2.3535959999999996,8.5121722
2023-12-14 05:58:04.472334,1024.359657489983,26.953100934624672,-91.92152088891855,8.0,0.0,0.0,0.0078125,0.0,0.0,0.0,29,-13.0625,4.75,-16.0625,-0.003272492347489368,-0.004363323129985824,0.003272492347489368,1.95,-3.93,8.69,0.0,0.0,0.0,0.0,0.0,0.0,0.980665,-2.7458620000000002,9.022118
2023-12-14 05:58:05.464895,1024.3026967575292,26.938992645824328,-92.31798933161757,8.0,0.0,0.0,0.0078125,0.0,0.0,0.0,29,-12.25,4.375,-16.0625,-0.002181661564992912,-0.003272492347489368,0.00545415391248228,1.94,-3.93,8.65,0.0,0.0,0.0,0.0,0.0,0.0,0.6276256,-2.4320492,8.7083052
2023-12-14 05:58:06.454013,1024.3251686236708,26.938992645824328,-91.92797663919552,8.0,0.0,0.0,0.0,0.0,0.0,0.0,29,-12.25,5.1875,-16.0625,-0.002181661564992912,-0.006544984694978736,0.002181661564992912,0.66,-3.94,8.67,0.0,0.0,0.0,0.0,0.0,0.0,0.7453053999999999,-2.4320492,8.9044382
2023-12-14 05:58:07.444328,1024.3267284227768,26.92018154845573,-91.65640832028633,8.0,0.0,0.0,0.0,0.0,0.0,0.0,29,-13.0625,4.75,-16.5625,-0.001090830782496456,-0.004363323129985824,0.003272492347489368,0.65,-3.92,8.61,0.0,0.0,0.0,0.0,0.0,0.0,0.784532,-2.7066354,8.825985
2023-12-14 05:58:08.435485,1024.3875745189212,26.891964804613963,-92.25739276015167,8.0,0.0,0.0,0.0078125,0.0,0.0,0.0,28,-13.0625,4.375,-17.25,0.001090830782496456,-0.004363323129985824,0.00545415391248228,0.65,-3.92,8.64,0.0,0.0,0.0,0.0,0.0,0.0,0.6668522,-2.549729,8.590625399999999
2023-12-14 05:58:09.428510,1024.298443817578,26.85434229695238,-91.50952713585332,8.0,0.0,0.0,0.0,0.0,0.0,0.0,28,-11.5625,4.75,-17.25,-0.002181661564992912,-0.002181661564992912,-0.002181661564992912,1.9000000000000001,-3.92,8.59,0.0,0.0,0.0,0.0,0.0,0.0,0.8629851999999999,-2.7850886,8.8652116
2023-12-14 05:58:10.418136,1024.2864338175668,26.85904512181878,-91.40405248876186,8.0,0.0,0.0,0.0,0.0,0.0,0.0,-100,-12.6875,5.875,-17.6875,-0.002181661564992912,-0.002181661564992912,0.002181661564992912,1.93,-3.93,8.64,0.0,0.0,0.0,0.0,0.0,0.0,0.6668522,-2.5889556,8.825985
2023-12-14 05:58:11.408007,1024.3441683795252,26.85434229695238,-91.8930428448279,8.0,0.0,0.0,0.0,0.0,0.0,0.0,29,-12.25,4.375,-17.25,0.0,-0.004363323129985824,0.001090830782496456,0.64,-3.95,8.64,0.0,0.0,0.0,0.0,0.0,0.0,0.6276256,-2.7066354,8.9436648
2023-12-14 05:58:12.396659,1024.297671686594,26.85434229695238,-92.07841539037216,8.0,0.0,0.0,0.0,0.0,0.0,0.0,29,-12.25,5.5625,-18.0625,-0.001090830782496456,-0.002181661564992912,0.001090830782496456,0.67,-3.89,8.59,0.0,0.0,0.0,0.0,0.0,0.0,0.9022117999999999,-2.6281822,8.7867584
