Time,Pressure,Temperature,Altitude,Heading,Roll,Pitch,x_qua,y_qua,z_qua,w_qua,temp_c,x_mag,y_mag,z_mag,x_gyro,y_gyro,z_gyro,x_acc,y_acc,z_acc,x_lin,y_lin,z_lin,x_grav,y_grav,z_grav,X_adx,Y_adx,Z_adx
2023-12-23 17:17:44.923501,0,0,0,0.0,0.0,0.0,0.0,0.0,0.0,0.0,-103,-10.375,-45.75,14.25,-0.002181661564992912,-0.004363323129985824,0.004363323129985824,6.9,3.5500000000000003,-6.0,6.9,3.5500000000000003,-15.81,6.9,3.54,-5.99,7.139241199999999,3.0989014,-6.354709199999999
2023-12-23 17:17:46.127393,0,0,0,0.0,0.0,0.0,0.0,0.0,0.0,0.0,-103,-25.5625,-46.5625,27.375,0.0,-0.003272492347489368,0.003272492347489368,6.88,3.54,-6.01,6.88,3.5500000000000003,-15.83,0.0,0.0,9.8,7.217694399999999,3.138128,-6.3939357999999995
2023-12-23 17:17:47.269613,0,0,0,0.0,0.0,0.0,0.0,0.0,0.0,0.0,25,-22.6875,-45.75,27.75,-0.00545415391248228,-0.001090830782496456,0.003272492347489368,6.9,3.5100000000000002,-6.0200000000000005,0.0,0.0,0.0,0.0,0.0,9.8,7.178467799999999,3.0989014,-6.3939357999999995
2023-12-23 17:17:48.315884,0,0,0,0.0,0.0,0.0,0.0,0.0,0.0,0.0,-103,-24.5625,-45.75,33.875,-0.001090830782496456,-0.003272492347489368,0.00545415391248228,6.9,3.54,-6.01,6.890000000000001,3.5300000000000002,-15.82,0.0,0.0,9.8,7.256920999999999,3.138128,-6.5508422
2023-12-23 17:17:49.411322,0,0,0,0.0,0.0,0.0,0.0,0.0,0.0,0.0,-103,-17.375,-44.6875,23.0625,0.002181661564992912,-0.001090830782496456,0.002181661564992912,6.88,3.52,-6.0,6.91,3.56,-15.82,0.0,0.0,9.8,7.060788,3.0989014,-6.4331624
2023-12-23 17:17:50.515815,0,0,0,0.0,0.0,0.0,0.0,0.0,0.0,0.0,-103,-15.5625,-45.0625,16.875,0.0,-0.003272492347489368,0.00545415391248228,6.92,3.5500000000000003,-6.0200000000000005,0.0,0.0,0.0,0.0,0.0,9.8,7.217694399999999,3.2558078,-6.472389
2023-12-23 17:17:51.547131,0,0,0,0.0,0.0,0.0,0.0,0.0,0.0,0.0,-103,-13.375,-44.6875,17.375,0.0,-0.002181661564992912,0.002181661564992912,6.88,3.5300000000000002,-6.0,6.9,3.54,-15.82,0.0,0.0,9.8,7.139241199999999,3.138128,-6.3939357999999995
2023-12-23 17:17:52.606800,0,0,0,0.0,0.0,0.0,0.0,0.0,0.0,0.0,-103,-14.5,-43.5625,17.75,-0.001090830782496456,-0.002181661564992912,0.002181661564992912,6.890000000000001,3.54,-5.99,6.91,3.54,-15.81,0.0,0.0,9.8,7.178467799999999,3.2558078,-6.7469752000000005
2023-12-23 17:17:53.631399,0,0,0,0.0,0.0,0.0,0.0,0.0,0.0,0.0,25,-14.0625,-42.5,20.375,-0.002181661564992912,-0.003272492347489368,0.002181661564992912,6.93,3.5500000000000003,-6.0200000000000005,6.9,3.54,-15.8,6.9,3.54,-5.99,7.0215613999999995,3.0204481999999997,-6.3939357999999995
2023-12-23 17:17:54.714951,0,0,0,0.0,0.0,0.0,0.0,0.0,0.0,0.0,25,-14.0625,-43.875,19.25,-0.003272492347489368,-0.002181661564992912,0.003272492347489368,6.86,3.54,-6.0,0.0,0.0,0.0,0.0,0.0,0.0,6.864655,3.138128,-6.3939357999999995
2023-12-23 17:17:55.707364,0,0,0,0.0,0.0,0.0,0.0,0.0,0.0,0.0,25,-14.5,-43.1875,18.0625,-0.004363323129985824,-0.00545415391248228,0.002181661564992912,6.91,3.56,-6.0,0.0,0.0,0.0,0.0,0.0,0.0,7.3353741999999995,2.8243152,-6.7077486
2023-12-23 17:17:56.695237,0,0,0,0.0,0.0,0.0,0.0,0.0,0.0,0.0,25,-13.375,-43.875,18.5,-0.00545415391248228,-0.002181661564992912,0.00545415391248228,6.9,3.5500000000000003,-6.03,0.0,0.0,0.0,0.0,0.0,0.0,7.178467799999999,3.1773545999999997,-6.3939357999999995
2023-12-23 17:17:57.675847,0,0,0,0.0,0.0,0.0,0.0,0.0,0.0,0.0,-103,-14.5,-43.875,19.25,-0.002181661564992912,0.00545415391248228,-0.001090830782496456,6.890000000000001,3.52,-6.0200000000000005,0.0,0.0,0.0,0.0,0.0,0.0,7.1000146,2.7850886,-6.5116156
2023-12-23 17:17:58.622330,0,0,0,0.0,0.0,0.0,0.0,0.0,0.0,0.0,25,-14.0625,-43.875,18.0625,0.0,-0.001090830782496456,0.003272492347489368,6.9,3.5500000000000003,-6.03,0.0,0.0,0.0,0.0,0.0,0.0,7.139241199999999,2.9027684,-6.6292954
2023-12-23 17:17:59.586103,0,0,0,0.0,0.0,0.0,0.0,0.0,0.0,0.0,25,-14.0625,-43.5625,20.0625,0.001090830782496456,0.001090830782496456,0.003272492347489368,6.890000000000001,3.56,-6.0200000000000005,0.0,0.0,0.0,0.0,0.0,0.0,7.1000146,2.941995,-6.6292954
2023-12-23 17:18:00.550952,0,0,0,0.0,0.0,0.0,0.0,0.0,0.0,0.0,25,-13.0,-42.875,19.25,0.001090830782496456,-0.002181661564992912,0.004363323129985824,6.9,3.5100000000000002,-6.03,0.0,0.0,0.0,0.0,0.0,0.0,6.903881599999999,3.0204481999999997,-6.668522
2023-12-23 17:18:01.520227,0,0,0,0.0,0.0,0.0,0.0,0.0,0.0,0.0,-103,-13.375,-43.5625,19.6875,0.001090830782496456,-0.001090830782496456,0.001090830782496456,6.890000000000001,3.5300000000000002,-6.05,0.0,0.0,0.0,0.0,0.0,0.0,7.1000146,3.0204481999999997,-6.5900688
2023-12-23 17:18:02.474936,0,0,0,0.0,0.0,0.0,0.0,0.0,0.0,0.0,-103,-14.5,-42.875,21.5625,0.0,-0.001090830782496456,0.001090830782496456,6.9,3.54,-6.01,0.0,0.0,0.0,0.0,0.0,0.0,7.0215613999999995,2.7850886,-6.4331624
2023-12-23 17:18:03.424636,0,0,0,0.0,0.0,0.0,0.0,0.0,0.0,0.0,-103,-13.375,-43.25,24.25,0.002181661564992912,-0.006544984694978736,0.001090830782496456,6.91,3.54,-6.04,0.0,0.0,0.0,0.0,0.0,0.0,6.982334799999999,2.8243152,-6.668522
2023-12-23 17:18:04.384712,0,0,0,0.0,0.0,0.0,0.0,0.0,0.0,0.0,-103,-13.375,-42.875,22.0,0.0,-0.002181661564992912,0.0,6.9,3.5500000000000003,-6.03,0.0,0.0,0.0,0.0,0.0,0.0,6.943108199999999,2.8243152,-6.472389
2023-12-23 17:18:05.336688,0,0,0,0.0,0.0,0.0,0.0,0.0,0.0,0.0,-103,-14.0625,-42.875,21.25,-0.001090830782496456,-0.003272492347489368,0.0,6.9,3.54,-5.99,0.0,0.0,0.0,0.0,0.0,0.0,6.786201800000001,3.0596748,-6.7077486
2023-12-23 17:18:06.287232,0,0,0,0.0,0.0,0.0,0.0,0.0,0.0,0.0,-103,-14.875,-42.0625,21.5625,0.001090830782496456,-0.00545415391248228,-0.001090830782496456,6.9,3.54,-5.99,0.0,0.0,0.0,0.0,0.0,0.0,6.864655,3.0204481999999997,-7.0215613999999995
2023-12-23 17:18:07.238382,0,0,0,0.0,0.0,0.0,0.0,0.0,0.0,0.0,-103,-13.75,-42.0625,22.375,-0.001090830782496456,-0.003272492347489368,0.0,6.9,3.54,-6.03,0.0,0.0,0.0,0.0,0.0,0.0,7.217694399999999,2.7850886,-6.5116156
2023-12-23 17:18:08.187206,0,0,0,0.0,0.0,0.0,0.0,0.0,0.0,0.0,-103,-12.25,-42.0625,21.25,-0.001090830782496456,-0.003272492347489368,0.004363323129985824,6.890000000000001,3.5500000000000003,-6.04,0.0,0.0,0.0,0.0,0.0,0.0,6.903881599999999,2.8635417999999997,-6.3939357999999995
2023-12-23 17:18:09.173963,0,0,0,0.0,0.0,0.0,0.0,0.0,0.0,0.0,-103,-13.0,-42.5,22.375,-0.003272492347489368,-0.002181661564992912,0.001090830782496456,6.890000000000001,3.5100000000000002,-6.0200000000000005,0.0,0.0,0.0,0.0,0.0,0.0,7.296147599999999,3.1773545999999997,-6.6292954
2023-12-23 17:18:10.133642,0,0,0,0.0,0.0,0.0,0.0,0.0,0.0,0.0,-103,-11.875,-45.375,19.25,-0.004363323129985824,-0.004363323129985824,-0.001090830782496456,6.890000000000001,3.54,-6.03,0.0,0.0,0.0,0.0,0.0,0.0,7.0215613999999995,2.9027684,-6.4331624
2023-12-23 17:18:11.083688,0,0,0,0.0,0.0,0.0,0.0,0.0,0.0,0.0,-103,-12.5625,-46.1875,20.5,0.002181661564992912,-0.001090830782496456,0.001090830782496456,6.9,3.5300000000000002,-6.01,0.0,0.0,0.0,0.0,0.0,0.0,6.864655,2.9027684,-6.5900688
2023-12-23 17:18:12.037612,0,0,0,0.0,0.0,0.0,0.0,0.0,0.0,0.0,-103,-13.0,-45.375,20.0625,0.001090830782496456,0.001090830782496456,-0.002181661564992912,6.890000000000001,3.5300000000000002,-6.01,0.0,0.0,0.0,0.0,0.0,0.0,7.060788,3.0989014,-6.6292954
2023-12-23 17:18:12.985951,0,0,0,0.0,0.0,0.0,0.0,0.0,0.0,0.0,-103,-12.5625,-45.375,19.25,-0.004363323129985824,-0.002181661564992912,0.003272492347489368,6.91,3.54,-6.04,0.0,0.0,0.0,0.0,0.0,0.0,7.139241199999999,3.0989014,-6.7077486
2023-12-23 17:18:13.934097,0,0,0,0.0,0.0,0.0,0.0,0.0,0.0,0.0,-103,-13.0,-45.0625,19.6875,0.0,0.001090830782496456,-0.001090830782496456,6.9,3.54,-6.03,0.0,0.0,0.0,0.0,0.0,0.0,6.943108199999999,3.0989014,-6.472389
2023-12-23 17:18:14.877592,0,0,0,0.0,0.0,0.0,0.0,0.0,0.0,0.0,-102,-13.375,-45.0625,18.875,0.0,-0.002181661564992912,0.0,6.890000000000001,3.54,-6.01,0.0,0.0,0.0,0.0,0.0,0.0,7.060788,2.941995,-6.4331624
2023-12-23 17:18:15.824432,0,0,0,0.0,0.0,0.0,0.0,0.0,0.0,0.0,-102,-13.0,-44.6875,20.0625,0.002181661564992912,0.0,0.0,6.88,3.56,-6.03,0.0,0.0,0.0,0.0,0.0,0.0,7.217694399999999,2.8635417999999997,-6.472389
2023-12-23 17:18:16.772696,0,0,0,0.0,0.0,0.0,0.0,0.0,0.0,0.0,-102,-13.0,-45.75,15.75,-0.002181661564992912,0.0,0.001090830782496456,6.9,3.54,-6.0200000000000005,0.0,0.0,0.0,0.0,0.0,0.0,7.139241199999999,2.9812215999999996,-6.6292954
2023-12-23 17:18:17.726722,0,0,0,0.0,0.0,0.0,0.0,0.0,0.0,0.0,-103,-14.5,-45.0625,21.5625,0.001090830782496456,-0.004363323129985824,0.00545415391248228,6.9,3.5300000000000002,-6.03,0.0,0.0,0.0,0.0,0.0,0.0,6.943108199999999,3.138128,-6.5508422
2023-12-23 17:18:18.671263,0,0,0,0.0,0.0,0.0,0.0,0.0,0.0,0.0,-102,-14.0625,-43.5625,23.5625,0.0,0.0,0.0,6.91,3.5300000000000002,-6.03,0.0,0.0,0.0,0.0,0.0,0.0,6.982334799999999,3.0596748,-6.5508422
2023-12-23 17:18:19.616485,0,0,0,0.0,0.0,0.0,0.0,0.0,0.0,0.0,-102,-14.875,-45.0625,22.75,0.0,-0.001090830782496456,0.0,6.890000000000001,3.5500000000000003,-6.0200000000000005,0.0,0.0,0.0,0.0,0.0,0.0,6.943108199999999,2.8243152,-6.5900688
2023-12-23 17:18:20.568006,0,0,0,0.0,0.0,0.0,0.0,0.0,0.0,0.0,-102,-13.375,-42.5,22.375,0.003272492347489368,-0.002181661564992912,-0.001090830782496456,6.9,3.5500000000000003,-6.01,0.0,0.0,0.0,0.0,0.0,0.0,7.1000146,3.0989014,-6.903881599999999
2023-12-23 17:18:21.522819,0,0,0,0.0,0.0,0.0,0.0,0.0,0.0,0.0,-102,-13.375,-43.5625,22.375,0.0,0.0,0.001090830782496456,6.91,3.5300000000000002,-6.04,0.0,0.0,0.0,0.0,0.0,0.0,6.864655,2.8635417999999997,-6.5116156
2023-12-23 17:18:22.475600,0,0,0,0.0,0.0,0.0,0.0,0.0,0.0,0.0,-102,-15.5625,-44.0,22.0625,-0.001090830782496456,-0.002181661564992912,-0.001090830782496456,6.890000000000001,3.54,-6.03,0.0,0.0,0.0,0.0,0.0,0.0,7.0215613999999995,2.941995,-6.5508422
2023-12-23 17:18:23.425546,0,0,0,0.0,0.0,0.0,0.0,0.0,0.0,0.0,-102,-13.375,-44.375,20.875,0.001090830782496456,0.0,-0.003272492347489368,6.9,3.54,-6.0200000000000005,0.0,0.0,0.0,0.0,0.0,0.0,7.139241199999999,2.941995,-6.903881599999999
2023-12-23 17:18:24.375436,0,0,0,0.0,0.0,0.0,0.0,0.0,0.0,0.0,-102,-14.0625,-45.0625,18.5625,-0.003272492347489368,0.001090830782496456,-0.001090830782496456,6.9,3.54,-6.0200000000000005,0.0,0.0,0.0,0.0,0.0,0.0,7.060788,2.9027684,-6.7469752000000005
2023-12-23 17:18:25.322934,0,0,0,0.0,0.0,0.0,0.0,0.0,0.0,0.0,-102,-13.75,-44.375,16.5625,0.0,-0.001090830782496456,0.0,6.91,3.54,-6.03,0.0,0.0,0.0,0.0,0.0,0.0,7.0215613999999995,3.2165812,-7.1000146
2023-12-23 17:18:26.275795,0,0,0,0.0,0.0,0.0,0.0,0.0,0.0,0.0,-102,-14.0625,-41.75,18.1875,0.002181661564992912,-0.004363323129985824,0.006544984694978736,6.9,3.54,-6.0200000000000005,0.0,0.0,0.0,0.0,0.0,0.0,7.1000146,2.8635417999999997,-6.354709199999999
2023-12-23 17:18:27.256605,0,0,0,0.0,0.0,0.0,0.0,0.0,0.0,0.0,-102,-13.0,-42.875,18.875,0.0,-0.002181661564992912,0.002181661564992912,6.890000000000001,3.5300000000000002,-5.99,0.0,0.0,0.0,0.0,0.0,0.0,7.060788,3.0596748,-6.3939357999999995
2023-12-23 17:18:28.246843,0,0,0,0.0,0.0,0.0,0.0,0.0,0.0,0.0,-102,-13.0,-41.75,19.25,-0.002181661564992912,-0.004363323129985824,0.002181661564992912,6.890000000000001,3.5300000000000002,-6.0,0.0,0.0,0.0,0.0,0.0,0.0,7.1000146,3.0989014,-6.472389
2023-12-23 17:18:29.247308,0,0,0,0.0,0.0,0.0,0.0,0.0,0.0,0.0,-102,-13.0,-41.0,19.75,0.001090830782496456,-0.002181661564992912,0.002181661564992912,6.91,3.5500000000000003,-6.01,0.0,0.0,0.0,0.0,0.0,0.0,7.139241199999999,3.2165812,-6.5508422
2023-12-23 17:18:30.195029,0,0,0,0.0,0.0,0.0,0.0,0.0,0.0,0.0,26,-12.5625,-42.0625,18.875,0.0,-0.004363323129985824,0.002181661564992912,6.9,3.54,-6.0,0.0,0.0,0.0,0.0,0.0,0.0,7.1000146,3.1773545999999997,-6.4331624
2023-12-23 17:18:31.177058,0,0,0,0.0,0.0,0.0,0.0,0.0,0.0,0.0,-102,-13.375,-41.75,18.875,-0.001090830782496456,-0.00545415391248228,0.006544984694978736,6.9,3.5300000000000002,-6.01,0.0,0.0,0.0,0.0,0.0,0.0,7.1000146,3.0204481999999997,-6.472389
2023-12-23 17:18:32.156338,0,0,0,0.0,0.0,0.0,0.0,0.0,0.0,0.0,26,-12.5625,-41.375,19.75,0.0,-0.002181661564992912,0.003272492347489368,6.88,3.5300000000000002,-6.03,0.0,0.0,0.0,0.0,0.0,0.0,7.060788,2.9812215999999996,-6.864655
2023-12-23 17:18:33.128138,0,0,0,0.0,0.0,0.0,0.0,0.0,0.0,0.0,-102,-13.375,-41.75,18.875,0.001090830782496456,-0.002181661564992912,0.003272492347489368,6.9,3.54,-6.03,0.0,0.0,0.0,0.0,0.0,0.0,6.8254284,3.0596748,-6.5900688
2023-12-23 17:18:34.074093,0,0,0,0.0,0.0,0.0,0.0,0.0,0.0,0.0,-102,-11.0625,-41.75,19.75,-0.003272492347489368,-0.002181661564992912,0.003272492347489368,6.92,3.54,-6.05,0.0,0.0,0.0,0.0,0.0,0.0,7.139241199999999,3.0204481999999997,-6.943108199999999
2023-12-23 17:18:35.038481,0,0,0,0.0,0.0,0.0,0.0,0.0,0.0,0.0,-102,-13.375,-41.0,18.875,-0.001090830782496456,0.0,0.002181661564992912,6.88,3.5100000000000002,-5.99,0.0,0.0,0.0,0.0,0.0,0.0,6.943108199999999,2.941995,-6.5116156
2023-12-23 17:18:35.987727,0,0,0,0.0,0.0,0.0,0.0,0.0,0.0,0.0,-102,-11.875,-41.75,18.5625,-0.002181661564992912,-0.001090830782496456,0.001090830782496456,6.9,3.52,-6.03,0.0,0.0,0.0,0.0,0.0,0.0,6.943108199999999,2.9812215999999996,-6.4331624
2023-12-23 17:18:36.958903,0,0,0,0.0,0.0,0.0,0.0,0.0,0.0,0.0,-102,-12.25,-41.375,18.5625,0.001090830782496456,0.0,-0.002181661564992912,6.890000000000001,3.52,-6.01,0.0,0.0,0.0,0.0,0.0,0.0,7.060788,2.7850886,-6.472389
2023-12-23 17:18:37.933220,0,0,0,0.0,0.0,0.0,0.0,0.0,0.0,0.0,-102,-14.0625,-41.75,18.5625,0.0,-0.002181661564992912,0.003272492347489368,6.9,3.5300000000000002,-6.0,0.0,0.0,0.0,0.0,0.0,0.0,7.1000146,3.138128,-6.5116156
2023-12-23 17:18:38.901624,0,0,0,0.0,0.0,0.0,0.0,0.0,0.0,0.0,-102,-12.25,-41.375,18.5625,-0.001090830782496456,0.001090830782496456,0.002181661564992912,6.9,3.54,-6.04,0.0,0.0,0.0,0.0,0.0,0.0,7.060788,3.0596748,-6.6292954
2023-12-23 17:18:39.885591,0,0,0,0.0,0.0,0.0,0.0,0.0,0.0,0.0,-102,-13.0,-42.875,17.375,-0.001090830782496456,-0.002181661564992912,0.004363323129985824,6.9,3.5300000000000002,-6.03,0.0,0.0,0.0,0.0,0.0,0.0,7.178467799999999,3.0989014,-6.7077486
2023-12-23 17:18:46.396523,0,0,0,0.0,0.0,0.0,0.0,0.0,0.0,0.0,-102,-13.75,-42.5,17.375,0.0,-0.003272492347489368,0.001090830782496456,6.9,3.52,-6.03,0.0,0.0,0.0,0.0,0.0,0.0,6.903881599999999,2.941995,-6.4331624
2023-12-23 17:18:47.344930,0,0,0,0.0,0.0,0.0,0.0,0.0,0.0,0.0,-102,-12.25,-40.25,20.1875,0.001090830782496456,-0.001090830782496456,-0.002181661564992912,6.91,3.5100000000000002,-6.0200000000000005,0.0,0.0,0.0,0.0,0.0,0.0,7.139241199999999,3.4911673999999997,-6.982334799999999
2023-12-23 17:18:48.293424,0,0,0,0.0,0.0,0.0,0.0,0.0,0.0,0.0,-102,-11.875,-39.875,18.5625,0.0,0.001090830782496456,-0.002181661564992912,6.9,3.5100000000000002,-6.0200000000000005,0.0,0.0,0.0,0.0,0.0,0.0,6.786201800000001,2.9812215999999996,-6.5116156
2023-12-23 17:18:49.264683,0,0,0,0.0,0.0,0.0,0.0,0.0,0.0,0.0,-102,-11.875,-39.5,18.25,-0.001090830782496456,-0.001090830782496456,0.001090830782496456,6.87,3.5300000000000002,-6.03,0.0,0.0,0.0,0.0,0.0,0.0,7.060788,3.138128,-6.6292954
2023-12-23 17:18:50.218436,0,0,0,0.0,0.0,0.0,0.0,0.0,0.0,0.0,-102,-11.875,-39.0625,18.25,0.0,-0.002181661564992912,-0.001090830782496456,6.9,3.5300000000000002,-6.03,0.0,0.0,0.0,0.0,0.0,0.0,6.982334799999999,2.9027684,-6.5508422
2023-12-23 17:18:51.176547,0,0,0,0.0,0.0,0.0,0.0,0.0,0.0,0.0,-102,-11.875,-39.0625,19.0,0.002181661564992912,-0.001090830782496456,0.0,6.88,3.5500000000000003,-6.0,0.0,0.0,0.0,0.0,0.0,0.0,7.1000146,2.7850886,-6.4331624
2023-12-23 17:18:52.133994,0,0,0,0.0,0.0,0.0,0.0,0.0,0.0,0.0,-102,-12.5625,-40.25,19.375,0.001090830782496456,0.0,0.001090830782496456,6.88,3.54,-6.04,0.0,0.0,0.0,0.0,0.0,0.0,7.1000146,3.2165812,-6.5508422
2023-12-23 17:18:58.637152,0,0,0,0.0,0.0,0.0,0.0,0.0,0.0,0.0,-102,-12.5625,-40.25,19.0,-0.002181661564992912,0.001090830782496456,-0.001090830782496456,6.91,3.5500000000000003,-6.01,0.0,0.0,0.0,0.0,0.0,0.0,7.256920999999999,3.0989014,-6.864655
2023-12-23 17:18:59.583865,0,0,0,0.0,0.0,0.0,0.0,0.0,0.0,0.0,-102,-11.875,-40.25,19.375,0.001090830782496456,0.0,0.0,6.9,3.5500000000000003,-6.0200000000000005,0.0,0.0,0.0,0.0,0.0,0.0,6.903881599999999,2.7458620000000002,-6.6292954
2023-12-23 17:19:00.535847,0,0,0,0.0,0.0,0.0,0.0,0.0,0.0,0.0,26,-12.25,-40.25,17.75,0.003272492347489368,-0.001090830782496456,-0.002181661564992912,6.890000000000001,3.56,-6.03,0.0,0.0,0.0,0.0,0.0,0.0,7.0215613999999995,2.941995,-6.668522
2023-12-23 17:19:01.487436,0,0,0,0.0,0.0,0.0,0.0,0.0,0.0,0.0,-102,-13.75,-40.5625,25.25,0.001090830782496456,0.0,-0.001090830782496456,6.9,3.54,-6.0200000000000005,0.0,0.0,0.0,0.0,0.0,0.0,6.7469752000000005,3.0596748,-6.668522
2023-12-23 17:19:02.434384,0,0,0,0.0,0.0,0.0,0.0,0.0,0.0,0.0,-102,-12.25,-40.5625,20.5625,0.001090830782496456,-0.002181661564992912,0.002181661564992912,6.9,3.52,-6.01,0.0,0.0,0.0,0.0,0.0,0.0,7.060788,2.9027684,-6.6292954
2023-12-23 17:19:03.373911,0,0,0,0.0,0.0,0.0,0.0,0.0,0.0,0.0,-102,-13.75,-41.75,22.0625,-0.001090830782496456,-0.001090830782496456,-0.002181661564992912,6.92,3.5500000000000003,-6.03,0.0,0.0,0.0,0.0,0.0,0.0,6.903881599999999,2.6674088,-6.1978028
2023-12-23 17:19:04.332013,0,0,0,8.0,0.0,0.0,0.0,0.0,0.0,0.0,26,-5.375,-42.0625,22.0625,-0.004363323129985824,-0.001090830782496456,0.004363323129985824,6.88,3.54,-6.03,0.0,0.0,0.0,0.0,0.0,0.0,7.1000146,2.9812215999999996,-6.5900688
2023-12-23 17:19:05.283690,0,0,0,8.0,0.0,0.0,0.0078125,0.0,0.0,0.0,26,-12.25,-42.875,19.75,0.0,-0.003272492347489368,0.003272492347489368,6.890000000000001,3.5100000000000002,-6.01,0.0,0.0,0.0,0.0,0.0,0.0,7.0215613999999995,2.9812215999999996,-6.7077486
2023-12-23 17:19:06.245355,0,0,0,8.0,0.0,0.0,0.0078125,0.0,0.0,0.0,26,-12.5625,-42.5,19.0,0.13962634015954636,-0.004363323129985824,0.003272492347489368,6.91,3.52,-6.04,0.0,0.0,0.0,0.0,0.0,0.0,7.1000146,3.1773545999999997,-6.668522
2023-12-23 17:19:07.202906,0,0,0,8.0,0.0,0.0,0.0,0.0,0.0,0.0,-102,-11.5,-42.0625,17.375,0.001090830782496456,-0.003272492347489368,0.004363323129985824,6.91,3.5500000000000003,-6.03,0.0,0.0,0.0,0.0,0.0,0.0,6.943108199999999,3.0204481999999997,-6.5508422
2023-12-23 17:19:08.159714,0,0,0,8.0,0.0,0.0,0.0,0.0,0.0,0.0,26,-12.25,-41.75,17.875,-0.001090830782496456,-0.006544984694978736,0.003272492347489368,6.9,3.56,-6.03,0.0,0.0,0.0,0.0,0.0,0.0,7.1000146,2.9812215999999996,-6.6292954
2023-12-23 17:19:09.114593,0,0,0,8.0,0.0,0.0,0.0,0.0,0.0,0.0,26,-11.875,-44.0,15.5,0.002181661564992912,-0.00545415391248228,0.001090830782496456,6.91,3.54,-6.0600000000000005,0.0,0.0,0.0,0.0,0.0,0.0,6.8254284,3.0989014,-6.8254284
2023-12-23 17:19:10.073433,0,0,0,8.0,0.0,0.0,0.0078125,0.0,0.0,0.0,26,-11.0625,-41.0,16.25,0.13962634015954636,-0.004363323129985824,0.003272492347489368,6.9,3.5300000000000002,-6.03,0.0,0.0,0.0,0.0,0.0,0.0,6.8254284,3.0596748,-6.4331624
2023-12-23 17:19:11.032197,0,0,0,8.0,0.0,0.0,0.0078125,0.0,0.0,0.0,26,-11.875,-40.5625,14.375,0.002181661564992912,-0.00545415391248228,0.00545415391248228,6.890000000000001,3.54,-6.04,0.0,0.0,0.0,0.0,0.0,0.0,6.943108199999999,3.0204481999999997,-6.5900688
2023-12-23 17:19:11.988782,0,0,0,8.0,0.0,0.0,0.0,0.0,0.0,0.0,26,-11.0625,-41.75,15.0625,-0.001090830782496456,-0.003272492347489368,0.002181661564992912,6.88,3.5300000000000002,-6.0200000000000005,0.0,0.0,0.0,0.0,0.0,0.0,7.178467799999999,3.0596748,-6.6292954
2023-12-23 17:19:12.943225,0,0,0,8.0,0.0,0.0,0.0,0.0,0.0,0.0,26,-10.0,-42.5,14.75,0.001090830782496456,-0.001090830782496456,0.002181661564992912,6.88,3.52,-6.0200000000000005,0.0,0.0,0.0,0.0,0.0,0.0,7.060788,2.941995,-6.6292954
2023-12-23 17:19:13.900570,0,0,0,0.0,0.0,0.0,0.0,0.0,0.0,0.0,26,-11.5,-41.0,17.0625,-0.002181661564992912,-0.001090830782496456,0.00545415391248228,6.9,3.5500000000000003,-6.0200000000000005,0.0,0.0,0.0,0.0,0.0,0.0,6.903881599999999,2.9812215999999996,-6.5900688
2023-12-23 17:19:14.855006,0,0,0,8.0,0.0,0.0,0.0078125,0.0,0.0,0.0,26,-11.0625,-40.5625,18.25,-0.001090830782496456,-0.003272492347489368,0.00545415391248228,6.9,3.52,-6.01,0.0,0.0,0.0,0.0,0.0,0.0,6.8254284,3.138128,-6.7469752000000005
2023-12-23 17:19:15.813065,0,0,0,8.0,0.0,0.0,0.0,0.0,0.0,0.0,26,-9.25,-41.375,21.375,0.1407171709420428,0.002181661564992912,0.00545415391248228,6.92,3.5500000000000003,-6.05,0.0,0.0,0.0,0.0,0.0,0.0,6.982334799999999,3.0596748,-6.5116156
2023-12-23 17:19:16.768141,0,0,0,8.0,0.0,0.0,0.0,0.0,0.0,0.0,26,-11.5,-46.5625,18.25,0.13962634015954636,-0.003272492347489368,0.006544984694978736,6.88,3.5300000000000002,-6.03,0.0,0.0,0.0,1.28,0.0,0.0,7.1000146,3.0989014,-6.668522
2023-12-23 17:19:17.726783,0,0,0,8.0,0.0,0.0,0.0,0.0,0.0,0.0,26,-10.75,-45.0625,18.25,-0.003272492347489368,-0.001090830782496456,0.002181661564992912,6.91,3.54,-6.01,1.28,0.0,0.0,0.0,0.0,0.0,6.903881599999999,3.0204481999999997,-6.8254284
2023-12-23 17:19:18.685653,0,0,0,0.0,0.0,0.0,0.0,0.0,0.0,0.0,26,-0.1875,-49.5625,19.0,0.0,-0.002181661564992912,0.002181661564992912,6.890000000000001,3.5300000000000002,-6.03,0.0,0.0,0.0,0.0,0.0,0.0,6.982334799999999,2.9812215999999996,-6.668522
2023-12-23 17:19:19.649568,0,0,0,0.0,0.0,0.0,0.0,0.0,0.0,0.0,26,-6.25,-52.875,18.25,-0.001090830782496456,-0.004363323129985824,0.00545415391248228,6.9,3.52,-6.0200000000000005,0.0,0.0,0.0,0.0,0.0,0.0,6.903881599999999,2.9027684,-6.6292954
2023-12-23 17:19:20.605128,0,0,0,8.0,0.0,0.0,0.0078125,0.0,0.0,0.0,-102,-8.875,-47.375,21.375,0.004363323129985824,-0.004363323129985824,0.003272492347489368,6.91,3.52,-6.0,0.0,0.0,0.0,0.0,0.0,0.0,7.217694399999999,2.9027684,-6.668522
2023-12-23 17:19:21.558111,0,0,0,8.0,0.0,0.0,0.0,0.0,0.0,0.0,26,-8.1875,-44.375,23.25,-0.002181661564992912,-0.001090830782496456,0.003272492347489368,6.890000000000001,3.5100000000000002,-6.01,0.0,0.0,0.0,0.0,0.0,0.0,6.864655,3.0596748,-6.5900688
2023-12-23 17:19:22.514523,0,0,0,0.0,0.0,0.0,0.0,0.0,0.0,0.0,26,-10.75,-44.0,20.1875,0.003272492347489368,-0.001090830782496456,0.004363323129985824,6.890000000000001,3.5500000000000003,-5.97,0.0,0.0,0.0,0.0,0.0,0.0,6.982334799999999,3.2165812,-6.5900688
2023-12-23 17:19:23.471276,0,0,0,8.0,0.0,0.0,0.0,0.0,0.0,0.0,26,-2.75,-45.0625,20.1875,-0.001090830782496456,-0.002181661564992912,0.002181661564992912,6.890000000000001,3.5300000000000002,-6.01,0.0,0.0,0.0,0.0,0.0,0.0,6.943108199999999,2.8243152,-6.5508422
2023-12-23 17:19:24.428232,0,0,0,8.0,0.0,0.0,0.0,0.0,0.0,0.0,26,-8.5625,-45.5,20.1875,0.0,-0.003272492347489368,0.004363323129985824,6.88,3.54,-6.0200000000000005,0.0,0.0,0.0,0.0,0.0,0.0,6.903881599999999,2.7458620000000002,-6.668522
2023-12-23 17:19:25.386978,0,0,0,8.0,0.0,0.0,0.0078125,0.0,0.0,0.0,26,-8.875,-45.875,20.1875,-0.002181661564992912,-0.004363323129985824,0.001090830782496456,6.9,3.5500000000000003,-6.04,0.0,0.0,0.0,0.0,0.0,0.0,7.060788,3.0204481999999997,-6.5116156
2023-12-23 17:19:26.359376,0,0,0,8.0,0.0,0.0,0.0,0.0,0.0,0.0,26,-9.6875,-46.5625,18.5625,-0.001090830782496456,-0.001090830782496456,0.002181661564992912,6.88,3.5300000000000002,-6.04,0.0,0.0,0.0,0.0,0.0,0.0,7.1000146,2.9027684,-6.5900688
2023-12-23 17:19:27.317996,0,0,0,8.0,0.0,0.0,0.0078125,0.0,0.0,0.0,26,-8.875,-45.0625,19.75,-0.001090830782496456,-0.002181661564992912,0.004363323129985824,6.88,3.54,-6.05,0.0,0.0,0.0,0.0,0.0,0.0,6.982334799999999,3.2165812,-6.8254284
2023-12-23 17:19:28.274663,0,0,0,8.0,0.0,0.0,0.0,0.0,0.0,0.0,26,-10.375,-44.75,20.5625,0.001090830782496456,-0.004363323129985824,0.004363323129985824,6.9,3.56,-6.03,0.0,0.0,0.0,0.0,0.0,0.0,6.903881599999999,3.0989014,-6.7077486
2023-12-23 17:19:29.237154,0,0,0,8.0,0.0,0.0,0.0,0.0,0.0,0.0,26,-0.875,-45.875,19.0625,-0.002181661564992912,-0.004363323129985824,0.002181661564992912,6.890000000000001,3.5100000000000002,-6.03,0.0,0.0,0.0,0.0,0.0,0.0,7.1000146,2.8635417999999997,-6.4331624
2023-12-23 17:19:30.195979,0,0,0,8.0,0.0,0.0,0.0,0.0,0.0,0.0,26,-8.5625,-45.0625,20.5625,0.1407171709420428,-0.004363323129985824,0.003272492347489368,6.890000000000001,3.52,-6.01,1.28,0.0,0.0,0.0,0.0,0.0,7.1000146,2.941995,-6.5116156
2023-12-23 17:19:31.155193,0,0,0,0.0,0.0,0.0,0.0,0.0,0.0,0.0,26,-7.75,-47.75,20.1875,-0.001090830782496456,-0.004363323129985824,0.003272492347489368,6.890000000000001,3.5300000000000002,-6.0,0.0,0.0,0.0,0.0,0.0,0.0,7.256920999999999,3.0596748,-6.7077486
2023-12-23 17:19:32.105816,0,0,0,8.0,0.0,0.0,0.0,0.0,0.0,0.0,26,-8.1875,-47.375,20.1875,0.0,-0.004363323129985824,0.004363323129985824,6.890000000000001,3.5300000000000002,-6.0200000000000005,0.0,0.0,0.0,0.0,0.0,0.0,6.903881599999999,2.941995,-6.668522
2023-12-23 17:19:33.062204,0,0,0,8.0,0.0,0.0,0.0,0.0,0.0,0.0,27,-8.1875,-45.875,21.375,-0.003272492347489368,-0.002181661564992912,0.003272492347489368,6.890000000000001,3.5100000000000002,-6.03,0.0,0.0,0.0,0.0,0.0,0.0,7.1000146,2.941995,-6.6292954
2023-12-23 17:19:34.015957,0,0,0,8.0,0.0,0.0,0.0,0.0,0.0,0.0,26,-8.5625,-47.375,19.0625,0.0,-0.003272492347489368,0.002181661564992912,6.88,3.5300000000000002,-6.01,0.0,0.0,0.0,0.0,0.0,0.0,7.0215613999999995,2.9027684,-6.5116156
2023-12-23 17:19:34.978950,0,0,0,0.0,0.0,0.0,0.0,0.0,0.0,0.0,26,-9.25,-46.25,19.0625,-0.004363323129985824,-0.003272492347489368,0.001090830782496456,6.88,3.5500000000000003,-6.04,0.0,0.0,0.0,0.0,0.0,0.0,6.786201800000001,3.0596748,-6.668522
2023-12-23 17:19:35.926658,0,0,0,8.0,0.0,0.0,0.0078125,0.0,0.0,0.0,27,-8.1875,-47.75,19.75,-0.002181661564992912,-0.003272492347489368,0.002181661564992912,6.91,3.5300000000000002,-6.04,0.0,0.0,0.0,0.0,0.0,0.0,7.178467799999999,3.0989014,-6.5508422
2023-12-23 17:19:36.882906,0,0,0,8.0,0.0,0.0,0.0,0.0,0.0,0.0,27,-8.5625,-46.5625,19.375,0.001090830782496456,-0.004363323129985824,0.003272492347489368,6.88,3.54,-6.04,0.0,0.0,0.0,0.0,0.0,0.0,6.903881599999999,3.0989014,-6.903881599999999
2023-12-23 17:19:37.839647,0,0,0,8.0,0.0,0.0,0.0078125,0.0,0.0,0.0,27,-8.1875,-47.75,19.75,0.001090830782496456,0.001090830782496456,0.002181661564992912,6.9,3.5300000000000002,-6.04,0.0,0.0,0.0,0.0,0.0,0.0,6.943108199999999,3.1773545999999997,-7.060788
2023-12-23 17:19:38.798979,0,0,0,8.0,0.0,0.0,0.0078125,0.0,0.0,0.0,27,-8.5625,-48.0625,21.0,-0.003272492347489368,-0.001090830782496456,0.001090830782496456,6.890000000000001,3.5300000000000002,-6.05,0.0,0.0,0.0,0.0,0.0,0.0,6.943108199999999,3.0204481999999997,-6.8254284
2023-12-23 17:19:39.754927,0,0,0,8.0,0.0,0.0,0.0,0.0,0.0,0.0,27,-8.1875,-47.375,20.5625,-0.002181661564992912,-0.002181661564992912,0.002181661564992912,6.890000000000001,3.5300000000000002,-6.0200000000000005,0.0,0.0,0.0,0.0,0.0,0.0,6.8254284,3.0989014,-6.354709199999999
2023-12-23 17:19:40.711036,0,0,0,8.0,0.0,0.0,0.0,0.0,0.0,0.0,27,-7.0625,-46.5625,22.1875,0.0,-0.003272492347489368,0.004363323129985824,6.890000000000001,3.54,-6.03,0.0,0.0,0.0,0.0,0.0,0.0,6.982334799999999,3.0989014,-6.943108199999999
2023-12-23 17:19:41.672372,0,0,0,8.0,0.0,0.0,0.0078125,0.0,0.0,0.0,27,-7.375,-46.5625,21.75,0.0,-0.003272492347489368,0.001090830782496456,6.88,3.52,-6.03,0.0,0.0,0.0,0.0,0.0,0.0,7.139241199999999,2.8635417999999997,-6.354709199999999
2023-12-23 17:19:42.631118,0,0,0,8.0,0.0,0.0,0.0078125,0.0,0.0,0.0,-101,-8.1875,-46.5625,21.0,-0.003272492347489368,-0.00545415391248228,0.004363323129985824,6.91,3.5300000000000002,-6.03,0.0,0.0,0.0,0.0,0.0,0.0,7.060788,2.9812215999999996,-6.668522
2023-12-23 17:19:43.591071,0,0,0,8.0,0.0,0.0,0.0,0.0,0.0,0.0,27,-7.0625,-46.25,22.1875,-0.001090830782496456,-0.003272492347489368,0.003272492347489368,6.9,3.52,-6.05,0.0,0.0,0.0,0.0,0.0,0.0,6.982334799999999,3.0989014,-6.5508422
2023-12-23 17:19:44.546651,0,0,0,8.0,0.0,0.0,0.0,0.0,0.0,0.0,27,-8.5625,-46.5625,21.75,-0.001090830782496456,-0.003272492347489368,0.004363323129985824,6.890000000000001,3.5300000000000002,-6.01,1.28,0.0,0.0,0.0,0.0,0.0,7.178467799999999,2.9812215999999996,-6.5116156
2023-12-23 17:19:45.505758,0,0,0,0.0,0.0,0.0,0.0,0.0,0.0,0.0,27,-8.875,-46.5625,21.375,-0.002181661564992912,-0.004363323129985824,0.002181661564992912,6.9,3.52,-6.04,0.0,0.0,0.0,0.0,0.0,0.0,7.060788,2.9812215999999996,-6.786201800000001
2023-12-23 17:19:46.468080,0,0,0,8.0,0.0,0.0,0.0,0.0,0.0,0.0,27,-8.875,-46.25,19.0625,0.0,0.002181661564992912,0.004363323129985824,6.9,3.5300000000000002,-6.05,0.0,0.0,0.0,0.0,0.0,0.0,7.060788,3.0989014,-6.5116156
2023-12-23 17:19:52.956571,0,0,0,8.0,0.0,0.0,0.0078125,0.0,0.0,0.0,27,-2.0625,-44.0,19.375,-0.001090830782496456,-0.004363323129985824,0.002181661564992912,6.9,3.54,-6.0200000000000005,0.0,0.0,0.0,0.0,0.0,0.0,6.864655,3.0989014,-6.7469752000000005
2023-12-23 17:19:53.918160,0,0,0,8.0,0.0,0.0,0.0078125,0.0,0.0,0.0,27,-8.875,-43.5625,19.5,-0.001090830782496456,-0.003272492347489368,0.002181661564992912,6.88,3.5100000000000002,-6.01,0.0,0.0,0.0,0.0,0.0,0.0,7.296147599999999,3.0596748,-6.5508422
2023-12-23 17:19:54.877735,0,0,0,8.0,0.0,0.0,0.0,0.0,0.0,0.0,27,-7.75,-44.0,19.375,-0.002181661564992912,-0.003272492347489368,0.003272492347489368,6.9,3.54,-6.01,0.0,0.0,0.0,0.0,0.0,0.0,6.982334799999999,3.0989014,-6.7469752000000005
2023-12-23 17:19:55.836639,0,0,0,8.0,0.0,0.0,0.0078125,0.0,0.0,0.0,27,-0.875,-42.5,19.875,0.0,-0.001090830782496456,0.004363323129985824,6.9,3.5300000000000002,-6.03,0.0,0.0,0.0,0.0,0.0,0.0,7.060788,3.0204481999999997,-6.786201800000001
2023-12-23 17:19:56.795469,0,0,0,0.0,0.0,0.0,0.0,0.0,0.0,0.0,27,-9.25,-43.5625,19.0625,0.0,-0.004363323129985824,0.007635815477475192,6.890000000000001,3.52,-6.0,0.0,0.0,0.0,0.0,0.0,0.0,6.943108199999999,2.941995,-6.668522
2023-12-23 17:19:57.746105,0,0,0,8.0,0.0,0.0,0.0078125,0.0,0.0,0.0,27,-8.1875,-43.25,19.875,0.001090830782496456,-0.003272492347489368,0.00545415391248228,6.88,3.5,-6.04,0.0,0.0,0.0,0.0,0.0,0.0,7.1000146,3.138128,-6.5900688
2023-12-23 17:19:58.703300,0,0,0,8.0,0.0,0.0,0.0078125,0.0,0.0,0.0,27,-7.75,-42.5,21.0,0.0,-0.003272492347489368,0.002181661564992912,6.9,3.5300000000000002,-6.01,0.0,0.0,0.0,0.0,0.0,0.0,6.864655,3.0204481999999997,-6.7469752000000005
2023-12-23 17:19:59.662687,0,0,0,8.0,0.0,0.0,0.0078125,0.0,0.0,0.0,27,-8.5625,-42.0625,21.0,0.001090830782496456,-0.003272492347489368,0.002181661564992912,6.88,3.5,-6.0200000000000005,0.0,0.0,0.0,0.0,0.0,0.0,6.864655,3.0596748,-6.6292954
2023-12-23 17:20:00.619869,0,0,0,0.0,0.0,0.0,0.0,0.0,0.0,0.0,-101,-7.75,-45.0625,21.375,0.0,0.0,-0.003272492347489368,6.9,3.52,-6.0200000000000005,0.0,0.0,0.0,0.0,0.0,0.0,7.0215613999999995,3.1773545999999997,-6.6292954
2023-12-23 17:20:01.555427,0,0,0,8.0,0.0,0.0,0.0,0.0,0.0,0.0,27,-7.75,-47.75,21.0,0.0,-0.004363323129985824,0.0,6.890000000000001,3.52,-6.03,0.0,0.0,0.0,0.0,0.0,0.0,6.864655,3.0989014,-6.5900688
2023-12-23 17:20:02.507895,0,0,0,8.0,0.0,0.0,0.0,0.0,0.0,0.0,27,-7.375,-46.5625,22.1875,-0.002181661564992912,-0.003272492347489368,0.001090830782496456,6.890000000000001,3.54,-6.0600000000000005,0.0,0.0,0.0,0.0,0.0,0.0,7.0215613999999995,2.9812215999999996,-6.6292954
2023-12-23 17:20:03.462842,0,0,0,8.0,0.0,0.0,0.0,0.0,0.0,0.0,27,-7.375,-46.25,23.0,0.002181661564992912,-0.003272492347489368,0.003272492347489368,6.88,3.54,-6.05,1.28,0.0,0.0,1.28,0.0,0.0,6.903881599999999,2.8243152,-6.5900688
2023-12-23 17:20:04.426412,0,0,0,8.0,0.0,0.0,0.0078125,0.0,0.0,0.0,27,-7.75,-44.75,22.5625,0.0,-0.003272492347489368,0.004363323129985824,6.87,3.5300000000000002,-6.03,0.0,0.0,0.0,0.0,0.0,0.0,7.1000146,3.0204481999999997,-7.139241199999999
2023-12-23 17:20:05.384372,0,0,0,8.0,0.0,0.0,0.0,0.0,0.0,0.0,27,-7.75,-44.375,23.0,-0.001090830782496456,-0.004363323129985824,0.004363323129985824,6.9,3.54,-6.01,0.0,0.0,0.0,0.0,0.0,0.0,6.943108199999999,3.0204481999999997,-6.6292954
2023-12-23 17:20:06.339585,0,0,0,8.0,0.0,0.0,0.0,0.0,0.0,0.0,27,-7.375,-45.5,20.5625,0.001090830782496456,0.0,0.00545415391248228,6.9,3.5500000000000003,-6.03,0.0,0.0,0.0,0.0,0.0,0.0,6.982334799999999,2.9812215999999996,-6.5900688
2023-12-23 17:20:07.294752,0,0,0,8.0,0.0,0.0,0.0,0.0,0.0,0.0,27,-8.1875,-44.75,22.5625,-0.001090830782496456,-0.002181661564992912,0.003272492347489368,6.9,3.52,-6.0,0.0,0.0,0.0,0.0,0.0,0.0,7.1000146,3.0204481999999997,-6.472389
2023-12-23 17:20:08.249929,0,0,0,8.0,0.0,0.0,0.0078125,0.0,0.0,0.0,27,-7.375,-45.0625,21.375,0.0,-0.006544984694978736,0.001090830782496456,6.890000000000001,3.5300000000000002,-6.0200000000000005,0.0,0.0,0.0,0.0,0.0,0.0,6.903881599999999,2.9812215999999996,-6.7469752000000005
2023-12-23 17:20:09.205163,0,0,0,8.0,0.0,0.0,0.0,0.0,0.0,0.0,-101,-7.375,-45.0625,21.75,0.001090830782496456,-0.002181661564992912,0.004363323129985824,6.890000000000001,3.5300000000000002,-6.04,0.0,0.0,0.0,0.0,0.0,0.0,7.0215613999999995,3.0204481999999997,-6.5508422
2023-12-23 17:20:10.162925,0,0,0,8.0,0.0,0.0,0.0,0.0,0.0,0.0,27,-8.875,-45.0625,22.5625,0.0,-0.00545415391248228,0.004363323129985824,6.88,3.52,-6.0200000000000005,0.0,0.0,0.0,0.0,0.0,0.0,6.982334799999999,3.138128,-6.7469752000000005
2023-12-23 17:20:11.125297,0,0,0,8.0,0.0,0.0,0.0,0.0,0.0,0.0,-101,-6.6875,-44.75,23.0,-0.001090830782496456,-0.004363323129985824,0.004363323129985824,6.890000000000001,3.5100000000000002,-6.01,0.0,0.0,0.0,0.0,0.0,0.0,7.0215613999999995,2.8635417999999997,-6.5900688
2023-12-23 17:20:12.080307,0,0,0,0.0,0.0,0.0,0.0078125,0.0,0.0,0.0,27,-6.6875,-44.0,22.5625,0.001090830782496456,-0.001090830782496456,0.004363323129985824,6.88,3.5500000000000003,-6.01,0.0,0.0,0.0,0.0,0.0,0.0,6.864655,3.0204481999999997,-6.786201800000001
2023-12-23 17:20:13.039668,0,0,0,8.0,0.0,0.0,0.0078125,0.0,0.0,0.0,27,-0.1875,-42.5,21.75,0.001090830782496456,-0.004363323129985824,0.003272492347489368,6.9,3.54,-6.04,0.0,0.0,0.0,0.0,0.0,0.0,6.943108199999999,3.138128,-6.5900688
2023-12-23 17:20:13.999304,0,0,0,8.0,0.0,0.0,0.0,0.0,0.0,0.0,27,-7.75,-42.875,21.0625,0.001090830782496456,-0.002181661564992912,0.002181661564992912,6.890000000000001,3.5300000000000002,-6.03,0.0,0.0,0.0,0.0,0.0,0.0,7.256920999999999,2.6281822,-6.786201800000001
2023-12-23 17:20:14.956159,0,0,0,8.0,0.0,0.0,0.0,0.0,0.0,0.0,27,-8.1875,-42.5,23.0,-0.002181661564992912,-0.002181661564992912,0.004363323129985824,6.890000000000001,3.52,-6.01,0.0,0.0,0.0,0.0,0.0,0.0,6.903881599999999,3.0204481999999997,-6.668522
2023-12-23 17:20:15.911148,0,0,0,8.0,0.0,0.0,0.0,0.0,0.0,0.0,27,-9.25,-42.0625,20.5625,-0.001090830782496456,-0.004363323129985824,0.003272492347489368,6.9,3.5100000000000002,-6.04,0.0,0.0,0.0,1.28,0.0,0.0,7.060788,3.1773545999999997,-6.8254284
2023-12-23 17:20:16.874115,0,0,0,8.0,0.0,0.0,0.0078125,0.0,0.0,0.0,27,-6.6875,-46.25,24.5625,-0.003272492347489368,-0.003272492347489368,0.003272492347489368,6.9,3.5300000000000002,-6.04,0.0,0.0,0.0,0.0,0.0,0.0,6.903881599999999,3.2165812,-6.4331624
2023-12-23 17:20:17.828326,0,0,0,8.0,0.0,0.0,0.0078125,0.0,0.0,0.0,27,-5.5625,-42.1875,26.0625,-0.003272492347489368,-0.00545415391248228,0.003272492347489368,6.890000000000001,3.54,-6.0600000000000005,0.0,0.0,0.0,0.0,0.0,0.0,7.0215613999999995,3.0204481999999997,-6.668522
2023-12-23 17:20:18.784378,0,0,0,0.0,0.0,0.0,0.0,0.0,0.0,0.0,27,-7.375,-41.75,24.1875,-0.001090830782496456,-0.004363323129985824,0.004363323129985824,6.890000000000001,3.5500000000000003,-6.03,0.0,0.0,0.0,0.0,0.0,0.0,7.178467799999999,2.9027684,-6.786201800000001
2023-12-23 17:20:19.736490,0,0,0,8.0,0.0,0.0,0.0078125,0.0,0.0,0.0,27,-7.0625,-40.25,24.875,0.001090830782496456,-0.003272492347489368,0.003272492347489368,6.88,3.5500000000000003,-6.0,0.0,0.0,0.0,0.0,0.0,0.0,6.982334799999999,3.0204481999999997,-6.786201800000001
2023-12-23 17:20:20.690269,0,0,0,8.0,0.0,0.0,0.0078125,0.0,0.0,0.0,27,-5.5625,-41.375,24.1875,0.003272492347489368,-0.001090830782496456,0.006544984694978736,6.88,3.5100000000000002,-6.05,0.0,0.0,0.0,0.0,0.0,0.0,6.982334799999999,3.0204481999999997,-6.668522
2023-12-23 17:20:21.645895,0,0,0,0.0,0.0,0.0,0.0,0.0,0.0,0.0,27,-5.875,-41.375,24.5625,-0.003272492347489368,-0.003272492347489368,0.003272492347489368,6.9,3.52,-6.01,0.0,0.0,0.0,0.0,0.0,0.0,7.060788,3.2950344,-6.7077486
2023-12-23 17:20:22.605173,0,0,0,8.0,0.0,0.0,0.0,0.0,0.0,0.0,27,-7.375,-40.6875,23.75,0.14289883250703572,-0.002181661564992912,0.006544984694978736,6.91,3.52,-6.04,0.0,0.0,0.0,0.0,0.0,0.0,6.982334799999999,3.0204481999999997,-6.668522
2023-12-23 17:20:23.559754,0,0,0,8.0,0.0,0.0,0.0,0.0,0.0,0.0,27,-7.375,-39.875,24.1875,0.001090830782496456,-0.002181661564992912,0.004363323129985824,6.86,3.54,-6.03,1.28,0.0,0.0,1.28,0.0,0.0,6.903881599999999,3.2558078,-6.6292954
2023-12-23 17:20:24.518052,0,0,0,0.0,0.0,0.0,0.0,0.0,0.0,0.0,27,-8.5625,-42.875,21.75,0.001090830782496456,-0.002181661564992912,0.003272492347489368,6.88,3.5500000000000003,-6.01,0.0,0.0,0.0,0.0,0.0,0.0,6.864655,2.9812215999999996,-6.5508422
2023-12-23 17:20:25.468119,0,0,0,8.0,0.0,0.0,0.0,0.0,0.0,0.0,-101,-8.875,-42.5625,21.0625,-0.001090830782496456,-0.002181661564992912,0.001090830782496456,6.9,3.5,-6.01,0.0,0.0,0.0,0.0,0.0,0.0,7.060788,3.0989014,-6.5116156
2023-12-23 17:20:26.423265,0,0,0,8.0,0.0,0.0,0.0,0.0,0.0,0.0,27,-8.5625,-44.0,21.375,-0.001090830782496456,-0.002181661564992912,0.001090830782496456,6.87,3.54,-6.01,0.0,0.0,0.0,0.0,0.0,0.0,7.0215613999999995,3.0596748,-6.668522
2023-12-23 17:20:27.380141,0,0,0,8.0,0.0,0.0,0.0,0.0,0.0,0.0,27,-1.6875,-42.875,21.75,0.001090830782496456,-0.002181661564992912,0.001090830782496456,6.9,3.52,-6.0600000000000005,0.0,0.0,0.0,1.28,0.0,0.0,6.786201800000001,3.0204481999999997,-6.5900688
2023-12-23 17:20:28.341526,0,0,0,8.0,0.0,0.0,0.0078125,0.0,0.0,0.0,27,-7.375,-43.25,21.375,0.14180800172453928,-0.001090830782496456,0.003272492347489368,6.890000000000001,3.54,-6.03,0.0,0.0,0.0,0.0,0.0,0.0,7.0215613999999995,2.9812215999999996,-6.6292954
2023-12-23 17:20:29.298750,0,0,0,0.0,0.0,0.0,0.0,0.0,0.0,0.0,27,-8.875,-43.25,20.6875,0.0,-0.001090830782496456,0.003272492347489368,6.9,3.54,-6.0200000000000005,0.0,0.0,0.0,0.0,0.0,0.0,7.060788,3.0204481999999997,-6.7469752000000005
2023-12-23 17:20:30.254953,0,0,0,8.0,0.0,0.0,0.0078125,0.0,0.0,0.0,27,-8.1875,-43.25,21.0625,-0.001090830782496456,-0.00545415391248228,0.004363323129985824,6.88,3.5500000000000003,-6.0200000000000005,0.0,0.0,0.0,0.0,0.0,0.0,7.060788,3.2558078,-6.5900688
2023-12-23 17:20:31.208945,0,0,0,8.0,0.0,0.0,0.0,0.0,0.0,0.0,27,-8.875,-42.5625,21.375,0.001090830782496456,-0.003272492347489368,0.007635815477475192,6.890000000000001,3.5100000000000002,-6.04,1.28,0.0,0.0,1.28,0.0,0.0,7.178467799999999,2.9027684,-6.5508422
2023-12-23 17:20:32.167657,0,0,0,8.0,0.0,0.0,0.0,0.0,0.0,0.0,27,-9.6875,-43.5625,21.375,0.0,-0.002181661564992912,0.003272492347489368,6.9,3.54,-6.03,0.0,0.0,0.0,0.0,0.0,0.0,7.1000146,2.9812215999999996,-6.472389
2023-12-23 17:20:33.122940,0,0,0,8.0,0.0,0.0,0.0,0.0,0.0,0.0,27,-9.25,-44.375,21.375,0.001090830782496456,-0.002181661564992912,0.004363323129985824,6.9,3.54,-6.04,0.0,0.0,0.0,0.0,0.0,0.0,6.8254284,2.8635417999999997,-6.7077486
2023-12-23 17:20:34.083935,0,0,0,8.0,0.0,0.0,0.0,0.0,0.0,0.0,27,-8.875,-42.5625,12.5,0.1407171709420428,-0.003272492347489368,0.003272492347489368,6.890000000000001,3.54,-6.05,1.28,0.0,0.0,0.0,0.0,0.0,6.982334799999999,2.8635417999999997,-6.6292954
2023-12-23 17:20:35.042253,0,0,0,8.0,0.0,0.0,0.0,0.0,0.0,0.0,27,-6.6875,-41.75,18.25,-0.001090830782496456,-0.002181661564992912,0.002181661564992912,6.9,3.52,-6.03,0.0,0.0,0.0,0.0,0.0,0.0,7.139241199999999,2.7850886,-6.6292954
2023-12-23 17:20:35.999496,0,0,0,8.0,0.0,0.0,0.0078125,0.0,0.0,0.0,27,-6.25,-44.75,11.25,0.04581489286485115,0.32070425005395803,0.22689280275926285,6.84,3.77,-6.140000000000001,0.0,0.0,0.0,1.28,0.0,0.0,6.7469752000000005,3.0596748,-6.668522
2023-12-23 17:20:36.960047,0,0,0,8.0,0.0,0.0,0.0,0.0,0.0,0.0,27,-6.25,-43.5625,13.5625,0.002181661564992912,-0.003272492347489368,0.003272492347489368,6.67,3.69,-6.21,1.28,0.0,0.0,1.28,0.0,0.0,6.6292954,3.2558078,-6.982334799999999
2023-12-23 17:20:37.917557,0,0,0,8.0,0.0,0.0,0.0,0.0,0.0,0.0,27,-8.5625,-45.0625,16.375,-0.001090830782496456,-0.001090830782496456,0.004363323129985824,6.67,3.68,-6.19,1.28,0.0,0.0,0.0,0.0,0.0,6.6292954,3.2950344,-7.0215613999999995
2023-12-23 17:20:38.875553,0,0,0,8.0,0.0,0.0,0.0078125,0.0,0.0,0.0,27,-1.6875,-45.5,16.0,-0.002181661564992912,0.0,0.003272492347489368,6.67,3.67,-6.2,0.0,0.0,0.0,0.0,0.0,0.0,6.786201800000001,2.941995,-6.943108199999999
2023-12-23 17:20:39.830272,0,0,0,8.0,0.0,0.0,0.0,0.0,0.0,0.0,27,-9.25,-45.0625,15.1875,0.0,-0.004363323129985824,0.003272492347489368,6.68,3.67,-6.21,0.0,0.0,0.0,0.0,0.0,0.0,6.4331624,3.138128,-6.943108199999999
2023-12-23 17:20:40.784668,0,0,0,8.0,0.0,0.0,0.0078125,0.0,0.0,0.0,27,-10.0625,-44.75,14.75,-0.004363323129985824,-0.004363323129985824,0.001090830782496456,6.67,3.69,-6.2,0.0,0.0,0.0,0.0,0.0,0.0,6.5116156,3.1773545999999997,-6.864655
2023-12-23 17:20:41.741288,0,0,0,8.0,0.0,0.0,0.0,0.0,0.0,0.0,27,-9.25,-44.0,15.1875,0.002181661564992912,-0.001090830782496456,0.007635815477475192,6.67,3.68,-6.19,0.0,0.0,0.0,0.0,0.0,0.0,6.864655,3.2165812,-6.943108199999999
2023-12-23 17:20:42.696711,0,0,0,8.0,0.0,0.0,0.0,0.0,0.0,0.0,27,-7.375,-44.0,15.1875,0.0,0.001090830782496456,0.0,6.69,3.69,-6.2,0.0,0.0,0.0,0.0,0.0,0.0,6.6292954,3.2165812,-6.786201800000001
2023-12-23 17:20:43.651880,0,0,0,8.0,0.0,0.0,0.0,0.0,0.0,0.0,27,-9.6875,-45.875,15.5625,0.001090830782496456,-0.004363323129985824,0.00545415391248228,6.67,3.66,-6.19,0.0,0.0,0.0,0.0,0.0,0.0,6.7077486,2.9812215999999996,-6.668522
2023-12-23 17:20:44.613458,0,0,0,8.0,0.0,0.0,0.0,0.0,0.0,0.0,27,-8.875,-47.375,19.0625,-0.002181661564992912,-0.004363323129985824,0.003272492347489368,6.69,3.66,-6.22,1.28,0.0,0.0,0.0,0.0,0.0,6.6292954,3.2165812,-7.060788
2023-12-23 17:20:45.572898,0,0,0,8.0,0.0,0.0,0.0,0.0,0.0,0.0,27,-8.5625,-47.75,17.5625,0.001090830782496456,0.0,0.003272492347489368,6.66,3.69,-6.19,0.0,0.0,0.0,0.0,0.0,0.0,6.8254284,3.0989014,-6.903881599999999
2023-12-23 17:20:46.535998,0,0,0,8.0,0.0,0.0,0.0,0.0,0.0,0.0,27,-9.25,-46.25,19.5,0.0,-0.003272492347489368,0.003272492347489368,6.68,3.67,-6.21,1.28,0.0,0.0,1.28,0.0,0.0,6.6292954,3.2558078,-7.0215613999999995
2023-12-23 17:20:47.493905,0,0,0,8.0,0.0,0.0,0.0,0.0,0.0,0.0,27,-8.5625,-45.0625,18.75,0.002181661564992912,-0.002181661564992912,0.004363323129985824,6.68,3.66,-6.19,0.0,0.0,0.0,0.0,0.0,0.0,6.7469752000000005,3.2165812,-6.786201800000001
2023-12-23 17:20:48.450816,0,0,0,8.0,0.0,0.0,0.0,0.0,0.0,0.0,27,-8.1875,-45.0625,18.375,-0.002181661564992912,-0.003272492347489368,0.001090830782496456,6.69,3.68,-6.21,1.28,0.0,0.0,0.0,0.0,0.0,6.864655,3.0989014,-6.786201800000001
2023-12-23 17:20:49.406841,0,0,0,8.0,0.0,0.0,0.0,0.0,0.0,0.0,27,-8.5625,-45.0625,17.5625,-0.002181661564992912,-0.003272492347489368,0.001090830782496456,6.65,3.67,-6.19,0.0,0.0,0.0,0.0,0.0,0.0,6.6292954,3.0596748,-6.8254284
2023-12-23 17:20:50.368618,0,0,0,0.0,0.0,0.0,0.0,0.0,0.0,0.0,-101,-10.0625,-45.5,18.25,0.0,-0.002181661564992912,0.003272492347489368,6.69,3.69,-6.2,0.0,0.0,0.0,0.0,0.0,0.0,6.903881599999999,3.2165812,-6.903881599999999
2023-12-23 17:20:51.327931,0,0,0,8.0,0.0,0.0,0.0,0.0,0.0,0.0,27,-8.875,-45.0625,16.75,-0.002181661564992912,-0.004363323129985824,0.002181661564992912,6.69,3.66,-6.21,0.0,0.0,0.0,0.0,0.0,0.0,7.1000146,3.138128,-6.5900688
2023-12-23 17:20:52.284922,0,0,0,0.0,0.0,0.0,0.0,0.0,0.0,0.0,27,-8.5625,-45.5,19.0625,-0.001090830782496456,-0.002181661564992912,0.002181661564992912,6.67,3.67,-6.2,0.0,0.0,0.0,0.0,0.0,0.0,6.903881599999999,2.9027684,-6.943108199999999
2023-12-23 17:20:53.244976,0,0,0,8.0,0.0,0.0,0.0,0.0,0.0,0.0,27,-8.1875,-42.5625,16.75,0.0,-0.001090830782496456,0.0,6.68,3.69,-6.19,0.0,0.0,0.0,0.0,0.0,0.0,6.668522,3.2165812,-6.8254284
2023-12-23 17:20:54.199923,0,0,0,8.0,0.0,0.0,0.0,0.0,0.0,0.0,-101,-6.6875,-42.5625,14.75,-0.003272492347489368,-0.003272492347489368,0.001090830782496456,6.67,3.68,-6.18,0.0,0.0,0.0,0.0,0.0,0.0,6.7469752000000005,3.1773545999999997,-6.7469752000000005
2023-12-23 17:20:55.155154,0,0,0,8.0,0.0,0.0,0.0,0.0,0.0,0.0,27,-7.75,-42.1875,14.75,0.0,-0.003272492347489368,0.004363323129985824,6.67,3.67,-6.2,0.0,0.0,0.0,0.0,0.0,0.0,6.5116156,3.138128,-7.060788
2023-12-23 17:20:56.114962,0,0,0,0.0,0.0,0.0,0.0,0.0,0.0,0.0,27,-7.75,-41.375,14.375,0.0,-0.003272492347489368,0.004363323129985824,6.67,3.67,-6.19,0.0,0.0,0.0,0.0,0.0,0.0,6.8254284,3.2165812,-6.982334799999999
2023-12-23 17:20:57.070117,0,0,0,8.0,0.0,0.0,0.0078125,0.0,0.0,0.0,27,-7.375,-40.25,16.75,-0.002181661564992912,-0.003272492347489368,0.002181661564992912,6.67,3.69,-6.19,0.0,0.0,0.0,1.28,0.0,0.0,6.6292954,3.2558078,-7.0215613999999995
2023-12-23 17:20:58.023953,0,0,0,8.0,0.0,0.0,0.0078125,0.0,0.0,0.0,27,-7.375,-41.0625,16.75,0.13962634015954636,-0.001090830782496456,0.002181661564992912,6.69,3.67,-6.2,0.0,0.0,0.0,0.0,0.0,0.0,6.864655,2.9812215999999996,-6.786201800000001
2023-12-23 17:20:58.978051,0,0,0,8.0,0.0,0.0,0.0,0.0,0.0,0.0,-101,-4.75,-40.6875,18.375,0.13962634015954636,-0.002181661564992912,0.001090830782496456,6.68,3.69,-6.22,0.0,0.0,0.0,0.0,0.0,0.0,6.6292954,3.0204481999999997,-6.7469752000000005
2023-12-23 17:20:59.933402,0,0,0,8.0,0.0,0.0,0.0078125,0.0,0.0,0.0,27,-6.6875,-40.25,17.5625,0.0,-0.003272492347489368,0.004363323129985824,6.67,3.67,-6.21,0.0,0.0,0.0,0.0,0.0,0.0,6.903881599999999,3.138128,-6.8254284
2023-12-23 17:21:00.893356,0,0,0,0.0,0.0,0.0,0.0,0.0,0.0,0.0,-101,-6.6875,-40.25,15.5625,-0.002181661564992912,0.002181661564992912,-0.003272492347489368,6.66,3.68,-6.19,0.0,0.0,0.0,0.0,0.0,0.0,6.8254284,3.0204481999999997,-6.786201800000001
2023-12-23 17:21:01.836490,0,0,0,8.0,0.0,0.0,0.0,0.0,0.0,0.0,27,-5.875,-40.25,16.0,-0.002181661564992912,0.0,0.002181661564992912,6.67,3.67,-6.18,0.0,0.0,0.0,1.28,0.0,0.0,6.786201800000001,3.0989014,-6.8254284
2023-12-23 17:21:02.795399,0,0,0,8.0,0.0,0.0,0.0078125,0.0,0.0,0.0,27,-6.6875,-40.6875,16.0,-0.002181661564992912,-0.003272492347489368,0.002181661564992912,6.67,3.68,-6.21,0.0,0.0,0.0,0.0,0.0,0.0,6.668522,3.0989014,-6.903881599999999
2023-12-23 17:21:03.750541,0,0,0,8.0,0.0,0.0,0.0,0.0,0.0,0.0,27,-7.0625,-41.375,16.375,0.001090830782496456,-0.00545415391248228,0.003272492347489368,6.65,3.68,-6.21,0.0,0.0,0.0,0.0,0.0,0.0,6.8254284,3.138128,-6.7469752000000005
2023-12-23 17:21:04.703325,0,0,0,8.0,0.0,0.0,0.0,0.0,0.0,0.0,27,-6.6875,-41.0625,15.5625,0.002181661564992912,-0.004363323129985824,0.002181661564992912,6.68,3.7,-6.23,0.0,0.0,0.0,0.0,0.0,0.0,6.864655,2.941995,-6.786201800000001
2023-12-23 17:21:05.657982,0,0,0,8.0,0.0,0.0,0.0,0.0,0.0,0.0,-101,-7.0625,-41.0625,15.5625,-0.001090830782496456,-0.004363323129985824,0.006544984694978736,6.67,3.69,-6.2,0.0,0.0,0.0,0.0,0.0,0.0,6.5116156,3.1773545999999997,-6.943108199999999
2023-12-23 17:21:06.614814,0,0,0,8.0,0.0,0.0,0.0,0.0,0.0,0.0,27,-6.6875,-41.0625,16.0,0.0,-0.003272492347489368,0.003272492347489368,6.68,3.68,-6.22,0.0,0.0,0.0,0.0,0.0,0.0,6.943108199999999,3.0989014,-6.786201800000001
2023-12-23 17:21:07.574909,0,0,0,8.0,0.0,0.0,0.0,0.0,0.0,0.0,27,-5.875,-41.0625,16.0,0.001090830782496456,-0.00545415391248228,0.001090830782496456,6.67,3.7,-6.21,0.0,0.0,0.0,0.0,0.0,0.0,6.668522,3.0596748,-6.864655
2023-12-23 17:21:08.541971,0,0,0,8.0,0.0,0.0,0.0078125,0.0,0.0,0.0,27,-5.875,-41.375,14.375,0.0,-0.00545415391248228,0.004363323129985824,6.68,3.68,-6.21,0.0,0.0,0.0,0.0,0.0,0.0,6.982334799999999,3.1773545999999997,-6.864655
2023-12-23 17:21:09.499595,0,0,0,8.0,0.0,0.0,0.0,0.0,0.0,0.0,27,-7.0625,-41.75,14.375,0.002181661564992912,-0.003272492347489368,0.004363323129985824,6.65,3.69,-6.2,0.0,0.0,0.0,0.0,0.0,0.0,6.7077486,3.2165812,-6.7469752000000005
2023-12-23 17:21:10.458523,0,0,0,8.0,0.0,0.0,0.0,0.0,0.0,0.0,27,-6.25,-41.0625,14.375,0.001090830782496456,-0.002181661564992912,0.003272492347489368,6.66,3.71,-6.21,0.0,0.0,0.0,0.0,0.0,0.0,6.903881599999999,3.138128,-6.982334799999999
2023-12-23 17:21:11.413555,0,0,0,8.0,0.0,0.0,0.0,0.0,0.0,0.0,27,-7.0625,-41.0625,14.75,0.001090830782496456,-0.003272492347489368,0.003272492347489368,6.65,3.68,-6.19,0.0,0.0,0.0,0.0,0.0,0.0,6.8254284,3.0989014,-6.786201800000001
2023-12-23 17:21:12.370827,0,0,0,8.0,0.0,0.0,0.0078125,0.0,0.0,0.0,27,-7.375,-41.75,15.25,-0.001090830782496456,-0.004363323129985824,0.00545415391248228,6.67,3.7,-6.2,0.0,0.0,0.0,0.0,0.0,0.0,6.7469752000000005,2.9812215999999996,-6.982334799999999
2023-12-23 17:21:13.331061,0,0,0,8.0,0.0,0.0,0.0,0.0,0.0,0.0,27,-8.1875,-45.5,8.875,-0.002181661564992912,-0.004363323129985824,0.001090830782496456,6.67,3.69,-6.22,0.0,0.0,0.0,0.0,0.0,0.0,6.8254284,3.334261,-7.139241199999999
2023-12-23 17:21:14.286806,0,0,0,8.0,0.0,0.0,0.0,0.0,0.0,0.0,-101,-7.0625,-47.75,8.5625,0.001090830782496456,-0.003272492347489368,0.003272492347489368,6.640000000000001,3.7,-6.22,0.0,0.0,0.0,0.0,0.0,0.0,6.7469752000000005,2.9027684,-7.0215613999999995
2023-12-23 17:21:15.243618,0,0,0,8.0,0.0,0.0,0.0,0.0,0.0,0.0,27,-7.75,-47.75,8.1875,0.0,-0.002181661564992912,0.004363323129985824,6.65,3.68,-6.22,0.0,0.0,0.0,0.0,0.0,0.0,6.5900688,3.334261,-6.7469752000000005
2023-12-23 17:21:16.202688,0,0,0,8.0,0.0,0.0,0.0078125,0.0,0.0,0.0,27,-7.75,-47.375,7.75,0.13962634015954636,-0.003272492347489368,0.00545415391248228,6.65,3.71,-6.2,0.0,0.0,0.0,0.0,0.0,0.0,6.8254284,3.0204481999999997,-7.0215613999999995
2023-12-23 17:21:17.161437,0,0,0,8.0,0.0,0.0,0.0078125,0.0,0.0,0.0,27,-6.25,-48.0625,7.75,-0.002181661564992912,-0.004363323129985824,0.001090830782496456,6.65,3.7,-6.23,0.0,0.0,0.0,0.0,0.0,0.0,6.7077486,3.2558078,-7.060788
2023-12-23 17:21:18.124184,0,0,0,8.0,0.0,0.0,0.0078125,0.0,0.0,0.0,27,-7.0625,-48.875,7.375,0.002181661564992912,-0.002181661564992912,0.003272492347489368,6.66,3.68,-6.22,0.0,0.0,0.0,0.0,0.0,0.0,6.864655,3.138128,-6.7469752000000005
2023-12-23 17:21:19.087701,0,0,0,0.0,0.0,0.0,0.0,0.0,0.0,0.0,27,-8.1875,-48.875,7.75,0.001090830782496456,-0.006544984694978736,0.001090830782496456,6.67,3.69,-6.22,0.0,0.0,0.0,0.0,0.0,0.0,6.5508422,3.1773545999999997,-6.903881599999999
2023-12-23 17:21:20.036034,0,0,0,8.0,0.0,0.0,0.0,0.0,0.0,0.0,27,-7.0625,-48.0625,7.75,0.0,-0.003272492347489368,0.004363323129985824,6.65,3.7,-6.21,0.0,0.0,0.0,0.0,0.0,0.0,6.864655,3.138128,-6.786201800000001
2023-12-23 17:21:20.991102,0,0,0,0.0,0.0,0.0,0.0,0.0,0.0,0.0,27,-6.6875,-48.0625,8.1875,-0.003272492347489368,-0.00545415391248228,0.001090830782496456,6.66,3.7,-6.21,0.0,0.0,0.0,0.0,0.0,0.0,6.786201800000001,3.2165812,-6.903881599999999
2023-12-23 17:21:21.939487,0,0,0,8.0,0.0,0.0,0.0,0.0,0.0,0.0,-101,-5.875,-48.5,7.75,0.001090830782496456,-0.003272492347489368,0.00545415391248228,6.67,3.7,-6.2,0.0,0.0,0.0,0.0,0.0,0.0,6.903881599999999,3.0989014,-6.7077486
2023-12-23 17:21:22.894707,0,0,0,8.0,0.0,0.0,0.0,0.0,0.0,0.0,27,-7.0625,-48.5,8.875,0.0,-0.002181661564992912,0.002181661564992912,6.65,3.7,-6.22,0.0,0.0,0.0,0.0,0.0,0.0,6.786201800000001,3.138128,-6.668522
2023-12-23 17:21:23.853337,0,0,0,8.0,0.0,0.0,0.0,0.0,0.0,0.0,27,-7.0625,-49.25,8.875,0.001090830782496456,-0.00545415391248228,0.004363323129985824,6.63,3.7,-6.21,0.0,0.0,0.0,0.0,0.0,0.0,6.8254284,3.2558078,-6.786201800000001
2023-12-23 17:21:24.813795,0,0,0,8.0,0.0,0.0,0.0078125,0.0,0.0,0.0,-101,-8.875,-44.75,8.875,-0.001090830782496456,-0.003272492347489368,0.004363323129985824,6.65,3.7,-6.19,0.0,0.0,0.0,0.0,0.0,0.0,6.7077486,3.1773545999999997,-6.943108199999999
2023-12-23 17:21:25.770141,0,0,0,8.0,0.0,0.0,0.0,0.0,0.0,0.0,27,-7.0625,-44.375,9.375,0.001090830782496456,-0.002181661564992912,0.00545415391248228,6.66,3.69,-6.23,0.0,0.0,0.0,1.28,0.0,0.0,6.982334799999999,3.0204481999999997,-6.6292954
2023-12-23 17:21:26.728964,0,0,0,8.0,0.0,0.0,0.0,0.0,0.0,0.0,27,-10.0625,-43.25,10.5625,-0.002181661564992912,-0.003272492347489368,0.002181661564992912,6.640000000000001,3.7,-6.21,0.0,0.0,0.0,0.0,0.0,0.0,6.668522,3.138128,-6.943108199999999
2023-12-23 17:21:27.684706,0,0,0,8.0,0.0,0.0,0.0,0.0,0.0,0.0,27,-9.25,-41.0625,9.75,0.001090830782496456,-0.002181661564992912,0.002181661564992912,6.65,3.71,-6.23,0.0,0.0,0.0,0.0,0.0,0.0,6.668522,3.1773545999999997,-6.7077486
2023-12-23 17:21:33.149535,0,0,0,8.0,0.0,0.0,0.0,0.0,0.0,0.0,28,-8.1875,-41.0625,9.75,-0.001090830782496456,-0.007635815477475192,0.003272492347489368,6.63,3.71,-6.22,1.28,0.0,0.0,0.0,0.0,0.0,6.903881599999999,3.0204481999999997,-6.7077486
2023-12-23 17:21:34.107114,0,0,0,8.0,0.0,0.0,0.0,0.0,0.0,0.0,28,-8.875,-40.6875,10.5625,-0.002181661564992912,-0.01090830782496456,0.0,6.63,3.73,-6.23,0.0,0.0,0.0,0.0,0.0,0.0,6.7469752000000005,3.334261,-6.903881599999999
2023-12-23 17:21:35.063352,0,0,0,8.0,0.0,0.0,0.0,0.0,0.0,0.0,27,-8.5625,-41.0625,10.0625,0.001090830782496456,-0.004363323129985824,0.002181661564992912,6.6000000000000005,3.7,-6.24,0.0,0.0,0.0,0.0,0.0,0.0,6.864655,3.0989014,-6.903881599999999
2023-12-23 17:21:36.019856,0,0,0,8.0,0.0,0.0,0.0,0.0,0.0,0.0,27,-8.875,-40.6875,10.875,-0.004363323129985824,-0.00545415391248228,0.003272492347489368,6.62,3.69,-6.25,1.28,0.0,0.0,0.0,0.0,0.0,6.668522,2.9812215999999996,-6.7077486
2023-12-23 17:21:36.978607,0,0,0,8.0,0.0,0.0,0.0078125,0.0,0.0,0.0,28,-10.0625,-45.5,11.25,-0.001090830782496456,-0.002181661564992912,0.00545415391248228,6.59,3.67,-6.22,0.0,0.0,0.0,0.0,0.0,0.0,6.786201800000001,3.138128,-6.982334799999999
2023-12-23 17:21:37.936593,0,0,0,8.0,0.0,0.0,0.0,0.0,0.0,0.0,28,-11.1875,-43.25,11.25,0.1407171709420428,-0.004363323129985824,0.003272492347489368,6.63,3.69,-6.22,1.28,0.0,0.0,0.0,0.0,0.0,6.7469752000000005,3.4519407999999996,-7.178467799999999
2023-12-23 17:21:38.896563,0,0,0,8.0,0.0,0.0,0.0,0.0,0.0,0.0,28,-0.1875,-44.375,9.375,0.1407171709420428,0.002181661564992912,0.006544984694978736,6.61,3.69,-6.21,0.0,0.0,0.0,0.0,0.0,0.0,6.7469752000000005,3.2558078,-6.943108199999999
2023-12-23 17:21:39.860829,0,0,0,8.0,0.0,0.0,0.0,0.0,0.0,0.0,27,-10.75,-41.375,9.75,-0.002181661564992912,-0.003272492347489368,0.004363323129985824,6.62,3.71,-6.23,0.0,0.0,0.0,0.0,0.0,0.0,6.668522,3.3734876000000003,-6.903881599999999
2023-12-23 17:21:40.815492,0,0,0,8.0,0.0,0.0,0.0,0.0,0.0,0.0,27,-7.375,-41.375,10.875,-0.001090830782496456,-0.004363323129985824,0.0,6.62,3.72,-6.25,0.0,0.0,0.0,0.0,0.0,0.0,6.5900688,3.2165812,-6.8254284
2023-12-23 17:21:41.769913,0,0,0,8.0,0.0,0.0,0.0,0.0,0.0,0.0,27,-9.6875,-41.0625,9.75,-0.002181661564992912,0.0,0.002181661564992912,6.59,3.7,-6.25,0.0,0.0,0.0,0.0,0.0,0.0,6.5508422,3.138128,-6.982334799999999
2023-12-23 17:21:42.724805,0,0,0,8.0,0.0,0.0,0.0,0.0,0.0,0.0,28,-8.875,-40.6875,10.5625,0.13962634015954636,-0.006544984694978736,0.002181661564992912,6.61,3.72,-6.2700000000000005,0.0,0.0,0.0,0.0,0.0,0.0,6.8254284,3.1773545999999997,-6.8254284
2023-12-23 17:21:43.680655,0,0,0,8.0,0.0,0.0,0.0,0.0,0.0,0.0,28,-8.5625,-40.25,10.875,0.001090830782496456,-0.00545415391248228,0.003272492347489368,6.61,3.71,-6.24,1.28,0.0,0.0,0.0,0.0,0.0,6.903881599999999,3.2165812,-6.8254284
2023-12-23 17:21:44.638832,0,0,0,0.0,0.0,0.0,0.0,0.0,0.0,0.0,28,-10.375,-39.875,11.25,-0.002181661564992912,-0.002181661564992912,0.002181661564992912,6.62,3.71,-6.22,0.0,0.0,0.0,0.0,0.0,0.0,6.7469752000000005,3.1773545999999997,-6.864655
2023-12-23 17:21:45.594670,0,0,0,0.0,0.0,0.0,0.0,0.0,0.0,0.0,28,-19.375,-36.5625,21.875,0.0,-0.003272492347489368,0.003272492347489368,6.61,3.71,-6.23,0.0,0.0,0.0,0.0,0.0,0.0,6.5900688,3.1773545999999997,-6.864655
2023-12-23 17:21:46.543315,0,0,0,8.0,0.0,0.0,0.0,0.0,0.0,0.0,28,-18.25,-35.375,23.0625,-0.003272492347489368,-0.003272492347489368,0.004363323129985824,6.61,3.72,-6.21,0.0,0.0,0.0,0.0,0.0,0.0,6.6292954,3.334261,-6.786201800000001
2023-12-23 17:21:47.499511,0,0,0,8.0,0.0,0.0,0.0078125,0.0,0.0,0.0,27,-16.75,-35.375,19.1875,0.0,-0.003272492347489368,0.0,6.61,3.67,-6.24,0.0,0.0,0.0,0.0,0.0,0.0,6.7469752000000005,2.9812215999999996,-6.864655
2023-12-23 17:21:48.456542,0,0,0,8.0,0.0,0.0,0.0,0.0,0.0,0.0,28,-13.0,-35.375,16.75,-0.001090830782496456,-0.002181661564992912,0.0,6.640000000000001,-323.97,-6.25,0.0,0.0,0.0,0.0,0.0,0.0,6.7077486,3.0989014,-6.903881599999999
2023-12-23 17:21:49.413055,0,0,0,8.0,0.0,0.0,0.0078125,0.0,0.0,0.0,-100,-13.75,-37.6875,15.5625,-0.003272492347489368,-0.002181661564992912,0.003272492347489368,6.61,3.7,-6.25,0.0,0.0,0.0,1.28,0.0,0.0,6.864655,3.138128,-6.943108199999999
2023-12-23 17:21:50.371406,0,0,0,8.0,0.0,0.0,0.0,0.0,0.0,0.0,28,-14.5,-37.6875,16.375,0.0,-0.003272492347489368,0.006544984694978736,6.62,3.72,-6.25,0.0,0.0,0.0,0.0,0.0,0.0,6.8254284,3.138128,-6.864655
2023-12-23 17:21:51.327724,0,0,0,8.0,0.0,0.0,0.0078125,0.0,0.0,0.0,28,-13.375,-36.5625,16.375,0.002181661564992912,0.001090830782496456,0.003272492347489368,6.62,3.69,-6.24,0.0,0.0,0.0,0.0,0.0,0.0,6.8254284,3.138128,-6.8254284
2023-12-23 17:21:52.282698,0,0,0,8.0,0.0,0.0,0.0,0.0,0.0,0.0,28,-13.0,-36.5625,16.0,0.003272492347489368,-0.003272492347489368,0.003272492347489368,6.640000000000001,3.7,-6.24,0.0,0.0,0.0,0.0,0.0,0.0,6.7469752000000005,3.2165812,-6.943108199999999
2023-12-23 17:21:53.238274,0,0,0,8.0,0.0,0.0,0.0078125,0.0,0.0,0.0,-100,-14.0625,-37.6875,14.375,0.0,-0.003272492347489368,0.002181661564992912,6.6000000000000005,3.7,-6.23,0.0,0.0,0.0,0.0,0.0,0.0,6.786201800000001,3.0596748,-6.903881599999999
2023-12-23 17:21:54.195028,0,0,0,8.0,0.0,0.0,0.0,0.0,0.0,0.0,28,-11.5,-38.0625,14.875,0.13962634015954636,0.0,0.003272492347489368,6.6000000000000005,3.71,-6.24,1.28,0.0,0.0,1.28,0.0,0.0,6.943108199999999,3.1773545999999997,-7.1000146
2023-12-23 17:21:55.152353,0,0,0,8.0,0.0,0.0,0.0,0.0,0.0,0.0,28,-10.375,-42.1875,12.875,-0.001090830782496456,-0.002181661564992912,0.001090830782496456,6.62,3.71,-6.25,0.0,0.0,0.0,0.0,0.0,0.0,6.5900688,3.2558078,-6.943108199999999
2023-12-23 17:21:56.111372,0,0,0,8.0,0.0,0.0,0.0,0.0,0.0,0.0,28,-10.375,-41.375,12.875,0.0,-0.003272492347489368,0.004363323129985824,6.640000000000001,3.68,-6.22,0.0,0.0,0.0,0.0,0.0,0.0,6.668522,3.138128,-6.982334799999999
2023-12-23 17:21:57.068641,0,0,0,0.0,0.0,0.0,0.0,0.0,0.0,0.0,28,-11.875,-42.875,18.375,0.0,-0.00545415391248228,0.003272492347489368,6.63,3.73,-6.25,0.0,0.0,0.0,0.0,0.0,0.0,6.982334799999999,2.9812215999999996,-6.982334799999999
2023-12-23 17:21:58.016962,0,0,0,8.0,0.0,0.0,0.0,0.0,0.0,0.0,28,-10.75,-54.0625,15.25,-0.001090830782496456,-0.002181661564992912,0.001090830782496456,6.63,3.68,-6.22,0.0,0.0,0.0,0.0,0.0,0.0,6.472389,3.1773545999999997,-6.943108199999999
2023-12-23 17:21:58.974701,0,0,0,8.0,0.0,0.0,0.0078125,0.0,0.0,0.0,28,-11.5,-51.875,16.375,0.002181661564992912,-0.003272492347489368,0.004363323129985824,6.63,3.7,-6.25,0.0,0.0,0.0,0.0,0.0,0.0,6.5900688,3.138128,-7.060788
2023-12-23 17:21:59.932408,0,0,0,8.0,0.0,0.0,0.0,0.0,0.0,0.0,28,-8.875,-49.5625,9.375,0.002181661564992912,-0.002181661564992912,0.004363323129985824,6.640000000000001,3.7,-6.2700000000000005,0.0,0.0,0.0,0.0,0.0,0.0,6.864655,3.138128,-6.786201800000001
2023-12-23 17:22:00.891160,0,0,0,0.0,0.0,0.0,0.0,0.0,0.0,0.0,-100,-9.6875,-49.5625,11.25,-0.001090830782496456,0.003272492347489368,-0.002181661564992912,6.61,3.68,-6.23,0.0,0.0,0.0,0.0,0.0,0.0,6.786201800000001,3.138128,-6.864655
2023-12-23 17:22:01.832876,0,0,0,8.0,0.0,0.0,0.0,0.0,0.0,0.0,28,-10.0625,-50.0,10.875,-0.00545415391248228,-0.004363323129985824,0.001090830782496456,6.62,3.72,-6.24,0.0,0.0,0.0,0.0,0.0,0.0,6.6292954,3.2165812,-6.786201800000001
2023-12-23 17:22:02.788157,0,0,0,8.0,0.0,0.0,0.0,0.0,0.0,0.0,28,-10.75,-50.375,9.75,-0.001090830782496456,-0.001090830782496456,0.003272492347489368,6.6000000000000005,3.71,-6.26,0.0,0.0,0.0,0.0,0.0,0.0,6.5900688,3.2558078,-6.7469752000000005
2023-12-23 17:22:03.743316,0,0,0,8.0,0.0,0.0,0.0,0.0,0.0,0.0,28,-11.1875,-51.875,10.5625,0.004363323129985824,-0.004363323129985824,0.002181661564992912,6.63,3.7,-6.23,0.0,0.0,0.0,1.28,0.0,0.0,6.7077486,3.334261,-7.178467799999999
2023-12-23 17:22:04.701169,0,0,0,0.0,0.0,0.0,0.0,0.0,0.0,0.0,28,-10.75,-51.0625,10.0625,0.0,-0.004363323129985824,0.003272492347489368,6.61,3.7,-6.23,0.0,0.0,0.0,0.0,0.0,0.0,6.786201800000001,3.0989014,-6.864655
2023-12-23 17:22:05.654660,0,0,0,8.0,0.0,0.0,0.0,0.0,0.0,0.0,28,-12.25,-50.75,10.875,0.001090830782496456,-0.003272492347489368,0.001090830782496456,6.62,3.68,-6.22,0.0,0.0,0.0,0.0,0.0,0.0,6.786201800000001,3.1773545999999997,-6.7469752000000005
2023-12-23 17:22:06.611453,0,0,0,8.0,0.0,0.0,0.0078125,0.0,0.0,0.0,28,-10.75,-51.0625,10.5625,0.001090830782496456,-0.006544984694978736,0.00545415391248228,6.63,3.69,-6.24,0.0,0.0,0.0,0.0,0.0,0.0,6.7077486,3.2950344,-7.0215613999999995
2023-12-23 17:22:07.571219,0,0,0,0.0,0.0,0.0,0.0,0.0,0.0,0.0,28,-11.1875,-50.75,9.375,-0.001090830782496456,-0.002181661564992912,0.004363323129985824,6.62,3.71,-6.22,0.0,0.0,0.0,0.0,0.0,0.0,6.903881599999999,3.0596748,-6.8254284
